Time,Longitude,Latitude,Altitude,Roll (deg),Pitch (deg),Yaw (deg)
189.00825772998382,17.826522997466952,58.379157537626114,10208.471425327636,-3.4363341861438894e-08,0.021004713663289935,331.9546252572669
189.50825752998378,17.822921115448366,58.38270248835196,10206.18084086228,-2.3332634154334773e-09,0.03238776995658117,331.9513485936975
190.00825732998373,17.819359095373798,58.386207844802826,10203.350308058212,-7.892633607307898e-09,0.04602351286173385,331.9476944745078
190.5082571299837,17.815835752506974,58.38967475167086,10200.271763248624,-1.1727853102444349e-08,0.059686426924143936,331.94340780973533
191.00825692998365,17.812349594289454,58.39310245375748,10190.048733780706,0.003369336051461095,-11.63123472537933,330.8442698254463
191.5082567299836,17.808912425660797,58.396468890519444,10141.59645870207,0.008388344311347743,-22.734859459358724,329.6688507576038
192.00825652998356,17.805562919980964,58.39972874071691,10044.073805355156,0.012626535564318453,-31.654916039557914,328.4217090166392
192.5082563299835,17.802347463324764,58.40283528380738,9898.020736533192,0.017558590001012158,-38.56330892547863,327.0653067825492
193.00825612998347,17.799313378777725,58.405746301129426,9706.16547118181,0.016118663487016367,-43.79699131329092,325.59677469201205
193.50825592998342,17.796503856304067,58.40842805647982,9472.782410169617,-0.05552039726278097,-47.60935754465066,323.97557979258994
194.00825572998338,17.79393717960998,58.41086951925385,9204.943230171732,0.11303905361360489,-50.15429435930105,322.1435425801443
194.50825552998333,17.791561000723075,58.41311091822648,8914.641022380925,0.3409949735879679,-51.601740981436066,321.0494639635271
195.00825532998329,17.789303981110223,58.41520304700509,8611.436255666918,0.30931634408291925,-52.08298311566261,319.9975049976479
195.50825512998324,17.787095935298925,58.41719302672706,8302.229573428578,0.3334343764679231,-51.73123731904752,318.9293349439675
196.0082549299832,17.784871959758892,58.41912171902792,7992.254197630781,0.3202731907790343,-50.636274377657955,317.8903958348538
196.50825472998315,17.782574404187073,58.421023216790985,7685.752879836238,0.30535327672675655,-48.862250659808005,316.92631300275895
197.0082545299831,17.780153758472668,58.42292526175562,7386.437142717639,0.2765863478067881,-46.45949955670812,316.06304753984534
197.50825432998306,17.777569153792925,58.42484980954953,7097.7821726670745,0.23933618475373145,-43.47910567223383,315.28067712245416
198.00825412998302,17.77478894007127,58.42681324194452,6823.178784975189,0.18735941339540285,-39.98886900621333,314.57045747107287
198.50825392998297,17.771791943679048,58.42882616944692,6565.939077635337,0.11928887664466453,-36.08752806931894,313.92162648789264
199.00825372998293,17.76856912106848,58.43089302873776,6329.153545117199,0.05237046714872709,-31.916224586434343,313.3741370060925
199.50825352998288,17.76512531486423,58.43301202745888,6115.406827791533,-0.021057485060647058,-27.65208215772641,312.9494638914574
200.00825332998284,17.76147916253507,58.43517576529479,5926.43976977048,-0.10991782325885623,-23.484601886151008,312.61560004437405
200.5082531299828,17.757660072971415,58.43737251329096,5762.87661528985,-0.2032348506678441,-19.58773791499312,312.3328106760748
201.00825292998275,17.75370349197636,58.43958820873384,5624.1232339472745,-0.27673555884524587,-16.08830115251487,312.0900803546978
201.5082527299827,17.749645831065653,58.44180872296574,5508.497875184763,-0.27883481283178163,-13.055956122074527,311.89023379663996
202.00825252998266,17.745520439034113,58.44402167450798,5413.536256015277,-0.20295453082939188,-10.509140603024528,311.7305576778548
202.5082523299826,17.741355208292013,58.446217367078496,5336.366584658102,-0.14148264342163733,-8.416855969886278,311.58700079243437
203.00825212998257,17.73717177234586,58.44838893553402,5274.071578425095,-0.09388872171751794,-6.7235519998905104,311.4555877566995
203.50825192998252,17.732985992890132,58.450531972246985,5223.942778083846,-0.05244444120174789,-5.36483368622121,311.3336380819437
204.00825172998248,17.728809016860325,58.45264394197672,5183.61749258625,-0.016737439637624727,-4.277181537083396,311.1750747601905
204.50825152998243,17.724648174186115,58.454723473112715,5151.122897345406,-0.0030850220909461436,-3.407518106615865,310.9935861701808
205.0082513299824,17.720508254479604,58.45677003781723,5124.851259960893,-0.00012553058269925189,-2.7123666024059983,310.8204755591103
205.50825112998234,17.716392532494023,58.45878377061453,5103.5117105908785,0.00023640088783700636,-2.154658875239931,310.6567257930312
206.0082509299823,17.712303256151415,58.460765227167336,5086.082093475035,0.0001466714059567296,-1.7042631363241967,310.503819181121
206.50825072998225,17.70824197166019,58.462715217090974,5071.761037466616,6.86412444362073e-05,-1.337673002499379,310.362628937363
207.0082505299822,17.704209700422485,58.46463471343193,5059.92277721876,3.355150859303333e-05,-1.0369753992186703,310.2332059633716
207.50825032998216,17.70020706678454,58.46652478862208,5050.078704350406,1.860774665984776e-05,-0.7882260144945025,310.115024651588
208.00825012998212,17.696234458959584,58.468386537664095,5041.846664155966,1.0990053560837246e-05,-0.5807033796099814,310.00729865120957
208.50824992998207,17.692292098337223,58.47022104727023,5034.926240729213,6.316136868929946e-06,-0.40629734068525375,309.90918000759416
209.00824972998203,17.688380082171516,58.47202937870957,5029.079863798732,3.202674648874508e-06,-0.2584638496497698,309.81984809518207
209.50824952998198,17.684498412882014,58.47381255766128,5024.11893570571,1.0958138680654598e-06,-0.13198145304123063,309.7385381117623
210.00824932998194,17.680647018977332,58.47557156840911,5019.892680922893,-3.125505847330665e-07,-0.02312174923123184,309.66454510920596
210.5082491299819,17.67682577036857,58.47730735085331,5016.278351168489,-1.226348662892722e-06,0.07043949506019014,309.59722027575333
211.00824892998185,17.67303448943065,58.479020799598146,5013.1743812109235,-1.7922110341407722e-06,0.15121398722777094,309.5359670797516
211.5082487299818,17.6692729593213,58.48071276433004,5010.4965241667305,-2.1161499882747025e-06,0.22117654589203836,309.480236759206
212.00824852998176,17.66554093070854,58.48238405084291,5008.174698174003,-2.272456977257998e-06,0.28206968362981777,309.4295249238955
212.5082483299817,17.66183812736928,58.48403542241855,5006.149184286395,-2.3153628909945973e-06,0.3341032048130311,309.3833665800056
213.00824812998167,17.658164250707244,58.48566760145531,5004.364639472554,-2.2813077098962023e-06,0.3758229726681625,309.34133174827934
213.50824792998162,17.654518982839168,58.48728127157982,5002.766167790705,-2.1886172824452186e-06,0.4069390759457461,309.30302289740354
214.00824772998158,17.650901988681536,58.48887708024047,5001.30482449151,-2.0454429516121384e-06,0.43251825895886103,309.26807292346285
214.50824752998153,17.647312918822184,58.49045564085714,4999.946331600488,-1.8804174164917931e-06,0.4564893970105346,309.23614428973417
215.0082473299815,17.643751413327074,58.49201753414685,4998.670651903868,-1.71635835429916e-06,0.48011641569400576,309.2069276363958
215.50824712998144,17.64021710510586,58.49356330932779,4997.466356174451,-1.5624293331682259e-06,0.5031673909724959,309.1801398485591
216.0082469299814,17.63670962226822,58.49509348559298,4996.325397470865,-1.4200998968724365e-06,0.5250590889761946,309.15552183301185
216.50824672998135,17.633228589582245,58.49660855395776,4995.243956664169,-1.2877527720495971e-06,0.5492766820526201,309.1328375578329
217.0082465299813,17.629773630151284,58.49810897893954,4994.226562373972,-1.1769748825508506e-06,0.577631255623616,309.11187343496766
217.50824632998126,17.626344367483775,58.49959519970623,4993.282153410128,-1.0904645888944046e-06,0.6078900054993073,309.09243715477953
218.00824612998122,17.622940426751704,58.50106763132528,4992.416241013045,-1.0184238229058857e-06,0.6371424840629446,309.0743557111292
218.50824592998117,17.619561434904398,58.50252666652051,4991.629023889705,-9.55056740246833e-07,0.6657005670201459,309.0574730264457
219.00824572998113,17.616207020678498,58.503972677440636,4990.917418150861,-9.005311023603619e-07,0.6924713270872475,309.04164738399305
219.50824552998108,17.612876814723023,58.505406017252106,4990.277252192035,-8.570458679907291e-07,0.7196794712637528,309.0267514052513
220.00824532998104,17.609570450176257,58.50682702147277,4989.707350107309,-8.271279424068983e-07,0.7482565959686497,309.01267088761165
220.508245129981,17.60628756358452,58.50823600892546,4989.208867780888,-8.071077145988312e-07,0.7776895852279883,308.9993038001009
221.00824492998095,17.60302779554446,58.5096332826574,4988.782718527982,-7.923677396204389e-07,0.8069512326994269,308.9865587087211
221.5082447299809,17.599790790920693,58.51101913095832,4988.427573794827,-7.804439978930697e-07,0.8349511465652044,308.97435350135265
222.00824452998086,17.59657619875821,58.512393828436046,4988.138626908293,-7.691012020479827e-07,0.8603658587188145,308.9626139145616
222.5082443299808,17.59338367201204,58.513757637119014,4987.907760750514,-7.601027252657971e-07,0.8832242900547994,308.95127295402244
223.00824412998077,17.590212867416756,58.5151108074736,4987.725760595065,-7.552617238311358e-07,0.9042537911201153,308.9402704401687
223.50824392998072,17.58706344564084,58.516453579201546,4987.583567121416,-7.518339013147072e-07,0.9231362252930008,308.9295523600849
224.00824372998068,17.583935071480443,58.5177861819304,4987.472638868961,-7.522991040725835e-07,0.9408123964533786,308.9190707396188
224.50824352998063,17.580827414150818,58.519108835809526,4987.385601089126,-7.532295208303293e-07,0.956918237389377,308.90878288459896
225.0082433299806,17.577740147483983,58.52042175203912,4987.314994691876,-7.531490188354464e-07,0.9708463423116447,308.8986508339204
225.50824312998054,17.574672949991815,58.5217251334567,4987.253999544811,-7.59386817182209e-07,0.9845391898711409,308.888641468206
226.0082429299805,17.571625505220112,58.5230191750002,4987.198869293439,-7.684361129260944e-07,0.9988405538117682,308.8787262693687
226.50824272998045,17.56859750220356,58.524304063997015,4987.148042995611,-7.75813860363142e-07,1.0129682500880521,308.8688808004559
227.0082425299804,17.56558863564958,58.525579980508546,4987.100493882376,-7.848292229848038e-07,1.0271729007680785,308.8590844203707
227.50824232998036,17.562598606050067,58.52684709773748,4987.0566463294035,-7.988237446830973e-07,1.0429513125004746,308.8493202467705
228.00824212998032,17.55962711994333,58.52810558231399,4987.018377377371,-8.074467376913238e-07,1.0587927425892738,308.83957451036605
228.50824192998027,17.556673889851705,58.5293555945954,4986.985578641269,-8.101014602258533e-07,1.0726311649324773,308.8298358509064
229.00824172998023,17.553738633828655,58.530597289179106,4986.955675416792,-8.171556223851855e-07,1.0859012022597314,308.82009532266477
229.50824152998018,17.550821075290756,58.53183081536444,4986.926772493493,-8.254238585403983e-07,1.0996880084267495,308.81034635973214
230.00824132998014,17.54792094315525,58.53305631739352,4986.8982704212285,-8.309668428417727e-07,1.113490878744968,308.8005845637717
230.5082411299801,17.545037971846636,58.53427393465455,4986.868882105592,-8.300865099791888e-07,1.1256038175493628,308.7908072276418
231.00824092998005,17.542171900947473,58.53548380201025,4986.834532588649,-8.242211280188337e-07,1.134799350628051,308.78101297467106
231.50824072998,17.53932247467616,58.53668605023493,4986.788386979181,-8.163711356597121e-07,1.1411947033660734,308.77120158591146
232.00824052997996,17.536489441528513,58.537880806412794,4986.72271987778,-8.091455556308908e-07,1.145784326801949,308.76137406855696
232.5082403299799,17.533672554211726,58.53906819418572,4986.630406816971,-7.99404510849465e-07,1.1486506709708417,308.75153257804624
233.00824012997987,17.530871573478485,58.54024833228705,4986.50432986731,-7.855039530856351e-07,1.1487608241182437,308.7416801926272
233.50823992997982,17.528087709755088,58.54142072770194,4986.336558436606,-7.362796311022289e-07,1.1481493984510673,308.73183477413863
234.00823972997978,17.525326377638315,58.54258311811666,4986.119091676695,-6.570225905997113e-07,1.152581726436402,308.7221310610599
234.50823952997973,17.52259515155861,58.54373233632797,4985.84590397881,-5.438521249515696e-07,1.1631150231586895,308.7127890061085
235.0082393299797,17.519903549172188,58.544864403612,4985.510204692992,-3.8390408334564114e-07,1.1792492750284893,308.70408015632097
235.50823912997964,17.51726315124674,58.545974481257225,4985.102075896052,-1.8285360414645353e-07,1.20428126968983,308.69631975830305
236.0082389299796,17.514687471677302,58.54705692702546,4984.611800824392,4.586400538399646e-08,1.2486474437863004,308.6898446915446
236.50823872997955,17.512191456913644,58.54810550675347,4984.039318135465,2.6966763122583575e-07,1.341050340221898,308.68497206524717
237.0082385299795,17.509790549065016,58.549113788530576,4983.425481219981,3.4819935403979164e-07,1.6570173859103903,308.68193851400986
237.50823832997946,17.50749938380417,58.550075690433715,4982.953315242362,9.592608662934537e-07,1.614769084750089,308.68083289180083
