Time,Longitude,Latitude,Altitude,Roll (deg),Pitch (deg),Yaw (deg)
230.00824132998014,17.49970523924018,58.604535048543546,10132.295784042479,2.0877829311741525e-08,0.021013690457631105,71.31135573304049
230.5082411299801,17.50699673946146,58.60581931996851,10130.030816168493,-6.193862435621009e-09,0.032266379376674,71.31738564901956
231.00824092998005,17.514207004315097,58.607088544245705,10127.24053292208,-8.10657962369508e-09,0.04569643198498159,71.32293172431214
231.50824072998,17.521338382305167,58.60834318690527,10124.210420950627,-1.2236157498597562e-08,0.05912718818750349,71.32774022354602
232.00824052997996,17.528392523119255,58.609582863424514,10128.156411097661,0.0030998329385430504,11.756926949209124,72.32442593822798
232.5082403299799,17.53533929950627,58.610798693367045,10168.734890923217,0.007789256947718873,22.425875259310825,73.40476953403171
233.00824012997987,17.542101399519478,58.61197391986272,10254.098124012968,0.011976518746886038,30.933710287700826,74.62360266451067
233.50823992997982,17.548597951576,58.613093341725445,10382.97410018423,0.0158271535757638,37.61033501080935,75.99436095649088
234.00823972997978,17.554759910266952,58.61414605605856,10551.893418645162,0.018812424455120328,42.732305440442396,77.48015304434543
234.50823952997973,17.560537827237624,58.61512636601515,10756.050036679746,0.022950070319794798,46.52316278896488,79.14515899115146
235.0082393299797,17.56590441963377,58.616033437102274,10990.045704051403,0.029119411336540002,49.159376077950064,81.03454769774109
235.50823912997964,17.570860076509415,58.6168708473233,11248.027922714362,0.05149188211100602,50.75527947924395,83.19279099697455
236.0082389299796,17.575481510493432,58.617648253516904,11521.316541957298,0.12337372939323939,51.36825406414687,85.54005350133899
236.50823872997955,17.57987480144474,58.61837494808422,11802.124056745175,0.18626241878320152,51.13897490272225,87.80411760394334
237.0082385299795,17.58413211327894,58.61905646647974,12085.081186900423,0.16377584819365829,50.158212910992205,89.98204674710625
237.50823832997946,17.58833122336766,58.619695114588424,12366.260362757519,0.09468610949888129,48.49023643405775,92.2083913050974
238.00823812997942,17.592537287243395,58.62029045679485,12642.561576819162,0.027309647697945492,46.19387642348121,94.38057656330307
238.50823792997937,17.596803618845644,58.62084010532629,12911.376422406587,0.007000029715946052,43.320066215366786,96.44295596322037
239.00823772997933,17.601172465282858,58.62134058106384,13170.379104395932,0.0034823117617212244,39.919017863784845,98.35504961586864
239.50823752997928,17.60567582605858,58.621788019471,13417.396314610694,-0.0010282790880666811,36.05463392606879,100.02217849707962
240.00823732997924,17.61033577791386,58.62217891622689,13650.356455339177,0.0007046597516892743,31.814478145379734,101.50915183180804
240.5082371299792,17.615164574214024,58.622510514878364,13867.309948831335,-0.00025393542294782493,27.31802021983495,102.86712643111639
241.00823692997915,17.620157295264793,58.62278201768956,14067.123603024344,-0.000357977759243956,22.73340386494442,104.07399838737803
241.5082367299791,17.625296011181558,58.622994670517485,14249.552930672551,-0.0007718607621767402,18.198658053947543,105.12961319530976
242.00823652997906,17.630562771766748,58.623150378080304,14414.421794616563,-0.0013520187071679902,13.82998847775147,105.99641284400376
242.508236329979,17.63594003531035,58.62325167815628,14561.597740128995,-0.0014960789955685203,9.73597050921269,106.63667028258998
243.00823612997897,17.64141054860478,58.62330176358752,14691.016803524639,-0.0011501796530825905,6.008333676124503,107.05650335879969
243.50823592997892,17.64695737938549,58.62330436099087,14802.704099194185,-0.0006375631850105664,2.7160513670310595,107.28311658532796
244.00823572997888,17.65256404953829,58.62326353600142,14896.787385943215,-0.0002114490262906387,-0.0960304345739632,107.34966866337021
244.50823552997883,17.658214722101675,58.623183499747185,14973.502724910146,7.559937668120991e-05,-2.4048790665540176,107.27444090949295
245.0082353299788,17.66389440414263,58.62306845695034,15033.193245935377,0.00023471168748437327,-4.204802751795817,107.09566083450493
245.50823512997874,17.669589133633767,58.622922454823026,15076.303176697988,0.00031621815321353404,-5.502380367599948,106.85356605008641
246.0082349299787,17.67528613584509,58.622749267988624,15103.368864375687,0.0002698667028793769,-6.311915579148313,106.54009086901091
246.50823472997865,17.680973773238367,58.62255241773101,15115.400165549934,0.00016065746581128492,-6.634148417461834,106.14006427014084
247.0082345299786,17.686642601827902,58.6223350672423,15114.970935476947,9.383059920556849e-05,-6.481077400883217,105.66450638670189
247.50823432997856,17.692287807470983,58.62209963806743,15104.93456289332,3.5200917409253906e-05,-5.945246754975664,105.13152459363033
248.00823412997852,17.697908289889224,58.62184796851271,15087.958625447069,-4.454812134757093e-05,-5.128986571137722,104.55150692554724
248.50823392997847,17.7035052355531,58.62158155710333,15066.454916710121,-0.00012865867616088117,-4.12773564211791,103.92949867403155
249.00823372997843,17.70908091464953,58.621301757325305,15042.53136117392,-0.00017872686283912844,-3.0266777950975654,103.27917774001226
249.50823352997838,17.714637780373003,58.62100989716871,15017.963873662628,-0.00021744628497686905,-1.8989447701786157,102.61557567147942
250.00823332997834,17.72017788958112,58.62070733291928,14994.18518986592,-0.00024772292530697874,-0.8045510733527715,101.95158078896287
250.5082331299783,17.725702616456235,58.62039545690163,14972.28851700074,-0.000266834292627228,0.20996648156850756,101.29697664963638
251.00823292997825,17.73121259943104,58.6200756789879,14953.044224313453,-0.0002733967846935304,1.1112291046748162,100.64866408455136
251.5082327299782,17.736707840167483,58.61974940750525,14936.916674336986,0.000668774364835963,0.952456523821161,100.00285548439699
252.00823252997816,17.742186793692515,58.619418076197306,14922.459827967212,0.0016240389430393358,-3.9458863150669625,99.38744056428078
252.5082323299781,17.74764533630657,58.619083131522515,14904.411471764179,0.0017352604311471175,-8.48043127117966,98.77780039293837
253.00823212997807,17.753078326967138,58.61874601058371,14878.467618667817,0.0015730949460779492,-11.89039084426909,98.16881731882093
253.50823192997802,17.7584801800068,58.61840812653561,14842.654543895227,0.0010116086483686292,-12.625291141237351,97.61069678710113
254.00823172997798,17.763850215921153,58.618070470274674,14798.247912468232,0.0004431788615195483,-10.79276088791019,97.11032747820659
254.50823152997793,17.76919599748565,58.61773343796175,14749.06240539085,-8.843681431556014e-05,-7.573566169880845,96.64440502673725
255.0082313299779,17.774528784576567,58.617397200342154,14699.369463517509,-0.000392273539051559,-5.538160924216968,96.15029868945537
255.50823112997784,17.77985488335388,58.617062262336596,14651.501797997054,-7.139806149956574e-05,-5.40122598439364,95.59843198933049
256.0082309299778,17.785174145284152,58.61672951765188,14605.49772312078,0.00023847286119008142,-5.620246835531559,95.03163095737787
256.50823072997946,17.790485110327168,58.61639991315788,14560.84934123489,0.0002826319868416719,-5.390557962485112,94.46775233659415
257.0082305299811,17.79578770486946,58.616074307166436,14517.56512476578,0.00022175275926881286,-4.750062780230955,93.90541505218795
257.5082303299828,17.80108299114472,58.61575349391061,14476.163682129032,4.877707519242437e-05,-3.4143939157643475,93.36539934997703
258.00823012998444,17.80637320423299,58.61543819561402,14437.842969327021,-0.00019028796045861293,-1.1176875511826565,92.86683376814196
258.5082299299861,17.811661286739977,58.61512906076363,14404.635936129553,-0.0004591472780146521,2.2337901291370996,92.4209595909641
259.00822972998776,17.816949202125137,58.61482668180055,14379.360128622035,-0.0007690133092340399,7.004145099022276,92.0524823056117
259.5082295299894,17.82223460154488,58.61453158224325,14364.505865463854,-0.0008406262683591717,12.613832372106733,91.74082029322086
260.0082293299911,17.82751027797185,58.61424418696656,14360.94030908821,-0.0005495251170912179,16.775223048647693,91.42758222258223
260.50822912999274,17.83276750765942,58.61396485490635,14369.012481509686,-7.061189273640762e-05,18.862668700158313,91.07790985443725
261.0082289299944,17.837997434342817,58.61369390112017,14388.521030579093,0.0003814085953052102,18.273434154881233,90.687925260065
261.50822872999606,17.84319265304061,58.61343157876378,14418.63763665492,0.0005761094965029873,15.508072262777342,90.27017038435862
262.0082285299977,17.84835168427142,58.613178030901175,14456.657699209312,0.0009370771813217514,10.986540067265116,89.82958489609146
262.5082283299994,17.85348616894655,58.612933305684535,14496.129465929014,0.001551933439124879,4.401926269461901,89.35767677122449
263.00822813000104,17.85861222552923,58.612697553985754,14529.697365448988,0.0015665164428572023,-3.1568791186918816,88.87285622115493
263.5082279300027,17.86373840525685,58.612471015417846,14551.054098615235,0.001454022288073609,-9.634085577242768,88.39002445582658
264.00822773000436,17.86885953459105,58.61225391521006,14557.891744052786,0.0010364552555318018,-15.810819195955885,87.8950554337784
264.508227530006,17.87396535249512,58.612046414351994,14549.60012892801,0.0005556450298860105,-21.63672243891039,87.3675988279487
265.0082273300077,17.87904402537865,58.611848599748235,14525.680242110915,7.675813118799482e-05,-27.365231621843638,86.79804882200293
265.50822713000935,17.884082149014954,58.611660461145725,14485.640930669637,-0.0004258587202776472,-32.938057493662114,86.18202171233696
266.008226930011,17.88906471314691,58.61148185468002,14429.03467501461,-0.0006643871257246622,-38.20469145784011,85.52602377226688
266.50822673001267,17.893975329830052,58.61131246433721,14355.527322623573,-0.0007231879765458564,-43.0623997226345,84.83567392723373
267.0082265300143,17.898796566730255,58.611151772833274,14264.924819567603,-0.0008809544824629755,-47.42109576446071,84.10295798686924
267.508226330016,17.90351053058559,58.61099905819471,14157.213435748181,-0.00017871259588839817,-50.73293748201724,83.34315681883928
268.00822613001765,17.908099894663273,58.610853426194716,14032.623631814362,0.0001582687256080106,-53.43335188140706,82.55024903813246
268.5082259300193,17.91254872337524,58.610713859375025,13891.61857279426,0.0017932001621750247,-54.493980137593255,81.77026953611802
269.00822573002097,17.91684459555983,58.610579395587145,13734.999520376596,0.002203536062568718,-54.24037427044459,81.04570958639628
269.5082255300226,17.920979350762018,58.610449263179575,13563.825489092276,0.0012005961828258926,-52.87124600154199,80.38368052580789
270.0082253300243,17.92494855078045,58.610322924036765,13379.265746586452,-0.00013643328651887857,-50.34014859019163,79.82210343746844
270.50822513002595,17.928768711521027,58.61020183071699,13183.644203271086,-0.0013647435699318073,-46.91249195662658,79.31722932268151
271.0082249300276,17.93251191204437,58.61009311046662,12982.245629111518,-0.0009691586566632936,-42.70353607045245,78.88823622391175
271.50822473002927,17.936260333524324,58.610005452984495,12780.346865264717,-0.0005227393717434518,-37.746591939169406,78.55708778779388
272.00822453003093,17.94009151562883,58.609947428057254,12582.99966515397,-0.0019308909136291276,-31.242165605178563,78.44455313823043
272.5082243300326,17.94406918505451,58.609925908758505,12395.080000340331,-0.0029179283491378924,-23.28636534057371,78.5788818017702
273.00822413003425,17.948211750066037,58.60994215348489,12219.241177565558,-0.0010499060813845586,-14.976165992929857,78.90026579843855
273.5082239300359,17.952524775098315,58.60999531296483,12057.810809659151,0.0009933654449556842,-7.171698821369016,79.32074220530913
274.00822373003757,17.957006969298284,58.61008333511457,11913.173987926886,0.0012023063323235174,0.1435549216598809,79.84556351215633
274.50822353003923,17.961647789911687,58.610202879770775,11787.495854829347,0.0010629614855065697,6.051565267885579,80.39242783802861
275.0082233300409,17.966426599640304,58.6103496290479,11682.374866733186,0.000576164677111743,10.214093471980428,80.88929399569668
275.50822313004255,17.9713147084763,58.61051887147191,11598.607245971516,-7.507798741954409e-05,12.517434869684175,81.30400429347961
276.0082229300442,17.976279105423007,58.61070600145804,11536.060446118794,-0.0003278341096533555,12.852371869761598,81.64603700607013
276.5082227300459,17.98128672156322,58.610906838999846,11493.643415257797,-0.0003791019203742782,11.367437314504711,81.93796498807549
277.00822253004753,17.986308548354646,58.611117842014174,11469.536247046477,-0.0004048229966775165,8.31982568109893,82.20489445902278
277.5082223300492,17.991321746429644,58.611336127501716,11460.710804715309,-0.00046149861514230284,4.0031701189338875,82.47336007726625
278.00822213005085,17.99631246263439,58.61155943043116,11458.245322888157,-0.0005713139515188614,-1.0293664850567954,82.76017728016218
278.5082219300525,18.001277636465076,58.61178628528313,11452.642388906148,-0.0005862604492102542,-5.825565730991049,83.05815479113681
279.0082217300542,18.00621356933807,58.612015342145,11437.693472354902,-0.0005110885197769732,-10.062017665454308,83.35813164461712
279.50822153005583,18.01111165189034,58.61224511596491,11409.956388794357,-0.00043144049966567337,-13.92595734019213,83.6541971452229
280.0082213300575,18.015959711251206,58.6124740768999,11367.663167036802,-0.0005688665861717293,-17.61624279232252,83.96313508061188
280.50822113005916,18.02074367010996,58.61270072226974,11309.932269133196,-0.0006476373602262153,-21.179603598108997,84.28879204130774
281.0082209300608,18.025448878736125,58.61292364384873,11236.4444030516,-0.0005582576662205994,-24.502099437352584,84.62538836131439
281.5082207300625,18.03006236156898,58.61314165781486,11147.490880358659,0.00015514532838793694,-27.055879181928514,84.9384216095044
282.00822053006414,18.03457797747357,58.6133540699124,11044.391647296372,0.0005136233864237921,-28.772905001280556,85.22378942538836
282.5082203300658,18.039000685871365,58.61356080542247,10929.527368131057,0.0009128126775366947,-29.06295748010138,85.47753585489626
283.00822013006746,18.0433475346181,58.613762361630705,10806.069348301855,0.0009712625170472252,-29.081655425374834,85.70368511057775
283.5082199300691,18.047638547566187,58.61395932968291,10676.847473807977,0.0004935511879046527,-28.495348311785957,85.92763827444135
284.0082197300708,18.05189667817974,58.614152356352676,10544.607141836572,0.001105442090192552,-27.338153845310295,86.12788676928753
284.50821953007244,18.056145731032576,58.61434209020839,10411.9914085991,0.001536193282365087,-25.89227379708982,86.2735446468692
285.0082193300741,18.060406117782122,58.61452909778818,10281.274471148212,0.0010034989405502878,-24.176859627204298,86.37628811508579
285.50821913007576,18.06469417267297,58.61471388208518,10154.42332123847,0.0015835841007796388,-22.203846185033413,86.40408030571189
286.0082189300774,18.06902200292276,58.61489697334558,10033.155934418544,0.0014602424494434448,-20.230294806726985,86.34319600605824
286.5082187300791,18.073394883812103,58.615078898579505,9918.628372955489,0.0011210838778048342,-18.733460159058993,86.20624065886605
287.00821853008074,18.077808543657714,58.6152600336144,9810.918223947823,0.0005783012215938454,-18.04745282323481,86.04266351535986
287.5082183300824,18.08225033684908,58.6154404646772,9708.846804458222,-7.870609378852624e-05,-18.203161661248117,85.92799644690147
288.00821813008406,18.086703799526443,58.61561995851778,9610.365994621772,0.0002135031180536355,-18.77635442698447,85.86090621391494
288.5082179300857,18.09115503101591,58.61579827269647,9513.520528079895,0.0025031173904489913,-19.03891474775936,85.64922769670349
289.0082177300874,18.095600671474738,58.6159759160387,9417.865547697473,0.0028302533909398114,-17.902157631220568,85.19274136560597
289.50821753008904,18.10004713337077,58.616154405579714,9324.520577110648,0.00216445758527741,-16.853484125009434,84.53509193001814
290.0082173300907,18.10450115978376,58.616335870389825,9234.794795836939,0.0026484386518470567,-14.877499664847635,83.6341824239936
290.50821713009236,18.10897042056851,58.61652311743488,9150.393473639417,0.0013496300629105517,-13.363361024810203,82.59921391528252
291.008216930094,18.11345546606099,58.61671890913978,9072.045849722528,0.0017654134811999438,-11.91895197480606,81.43276103598667
291.5082167300957,18.117955117100905,58.61692618399733,9000.339758930191,0.00247381377949119,-9.96669574444558,80.03549668093358
292.00821653009734,18.122469550519742,58.61714847864273,8936.431965163825,0.0020228325224358147,-7.501995459925676,78.41100417783959
292.508216330099,18.126997753554605,58.617389742553655,8881.740121125456,0.0013741484642236274,-4.9090468316088005,76.51961708709386
293.00821613010066,18.131534829751732,58.61765397019291,8837.335639096016,0.00022294180397861192,-2.5077793091133653,74.39789060173501
293.5082159301023,18.13607113970361,58.61794472300907,8803.150250619212,0.0002674842572786311,-1.1391206782781294,72.04817597087022
294.008215730104,18.140595540374335,58.61826533072265,8778.187980743784,-0.0008894398460410403,0.6127306063555131,69.40644553577773
294.50821553010564,18.145099003002336,58.618619519110354,8761.934352367662,-0.001653939366076666,2.071947848683141,66.46756742129855
295.0082153301073,18.149572817466186,58.61901111829842,8753.350133794704,-0.0020410331526480715,2.8727601688868774,63.18734877752403
295.50821513010897,18.15400935529583,58.619444319654505,8750.932602594934,-0.002891762752739257,3.548241541751743,59.51883950272648
296.0082149301106,18.15840230090115,58.61992391983915,8753.085794065788,-0.0026134327702487144,3.4065788402256603,55.46927565137496
296.5082147301123,18.162746235585473,58.62045535361676,8757.776224328989,-0.002706176372439188,3.0171752446437416,51.00944768678773
297.00821453011395,18.167035762501886,58.621044708075104,8763.32724918841,-0.00332454893916156,2.5506019864167935,45.91648857663169
297.5082143301156,18.171264166517286,58.62169894484793,8768.716464688487,-0.004478312408360396,2.351477874043015,39.71725888133421
298.00821413011727,18.175422058540914,58.62242648582816,8773.805705344847,-0.005251256094186981,2.5954224991616552,31.95365958793478
298.5082139301189,18.17949603912012,58.62323795456933,8778.911567113764,-0.005305102932451994,2.7854384913621977,21.526139853394312
299.0082137301206,18.183466007148144,58.624148034434064,8783.963230333158,-0.004177278121163344,2.7366250621048946,6.152634747571419
