Time,Longitude,Latitude,Altitude,Roll (deg),Pitch (deg),Yaw (deg)
1.0083329300000023,17.99999965320606,58.79704867996636,7014.41261700317,0.0026931920909447986,13.352380855181163,180.00247748726315
1.5083327299999973,17.99999922849458,58.79563515435331,7037.489621433244,0.005115254342643812,17.305550306153457,180.00527232232034
2.0083325299999926,17.999998634272835,58.79426436440046,7070.682559119129,0.007776269620741303,21.213184331715034,180.00885773378062
2.508332330000001,17.999997868356846,58.792940704941145,7113.322927627597,0.01018909617061276,25.47973579577297,180.01314183059688
3.008332130000009,17.999996930710516,58.79166850180003,7165.074044139112,0.012170821967417195,29.87627390366313,180.01801644771493
3.5083319300000175,17.99999582467395,58.79045185288344,7225.68413693828,0.01373817130617297,34.36371337247149,180.02341563210516
4.008331730000026,17.99999455779823,58.789294953801445,7294.87279494795,0.014948631851629885,38.922887654166296,180.02930337150616
4.508331530000034,17.999993143939424,58.78820363105215,7372.124350939519,0.01576186452995051,42.84475221848357,180.0354124091115
5.0083313300000425,17.999991596861054,58.78717503012411,7455.926929054848,0.01665825983150969,43.65998551187919,180.0404180781821
5.508331130000051,17.99998992042511,58.78619413134828,7543.951173010487,0.01811649381650862,44.142339610752806,180.04527306810394
6.008330930000059,17.99998811465151,58.785248410142714,7634.516982780192,0.019985136366387993,44.40683445681295,180.05004876524657
6.5083307300000675,17.99998617957562,58.7843292177284,7726.477880775995,0.021993430945201415,44.56339948994448,180.05477120699874
7.008330530000076,17.999984115182336,58.7834304065073,7819.082122248334,0.023990520293429813,44.6595930449175,180.05948977245134
7.508330330000084,17.999981921695962,58.78254767507988,7911.835695249948,0.02588127546951724,44.71952359832633,180.06422656154592
8.008330130000092,17.999979599676667,58.78167803920663,8004.411384324923,0.027614295973095098,44.7570868670495,180.0689908045974
8.508329930000047,17.999977149066424,58.78081865962895,8096.518059012706,0.029077245839431463,43.84956727144548,180.07309107366416
9.008329730000002,17.999974565917178,58.779963697037466,8187.537334570617,0.030826048705506096,42.540319303095856,180.07674461762792
9.508329529999957,17.99997184646186,58.779107802090195,8276.827174481545,0.03271556652331406,41.15975514888402,180.08025598543836
10.008329329999912,17.999968988375993,58.77824740561383,8363.929462481467,0.03460465182442364,39.72908205410953,180.08363783076715
10.508329129999867,17.999965990412683,58.77738015788229,8448.525462735191,0.036424339283993946,38.26237370051642,180.0869029847343
11.008328929999822,17.999962852169435,58.77650456373771,8530.392232998303,0.03814833383608707,36.77177603462071,180.09006684993372
11.508328729999777,17.99995957387381,58.775619728472805,8609.374928351677,0.03977042132877149,35.26816732332753,180.09314557812684
12.008328529999732,17.99995615620329,58.7747251796305,8685.369007467914,0.041292103280583484,33.7612063604955,180.09615493622326
12.508328329999687,17.999952600147093,58.77382074339729,8758.3083091272,0.04271654953158316,32.259639831389954,180.09911002592682
13.008328129999642,17.999948906897277,58.77290645739783,8828.156925928259,0.04404588598346016,30.77145413755077,180.10202522181228
13.508327929999597,17.999945077805744,58.77198251907451,8894.90275967128,0.04527972805972054,29.30408340807777,180.10491428886772
14.008327729999552,17.99994111433005,58.771049243590475,8958.553340052,0.0464155576279689,27.8638124071347,180.10778960931583
14.508327529999507,17.99993701787705,58.77010701423493,9019.134419352544,0.04727088019602274,26.467154719369173,180.11070501041027
15.008327329999462,17.99993278953948,58.769156259370305,9076.689538095206,0.04773240355296437,25.108048522800583,180.11370574772667
15.508327129999417,17.999928430063314,58.76819742445422,9131.274965853623,0.04786703716171803,23.789202245442212,180.11678872100293
16.008326929999374,17.999923939926656,58.76723095410645,9182.957015669963,0.047729607026788044,22.513994184293406,180.11994873051876
16.50832672999933,17.99991931940244,58.76625728816954,9231.810544554119,0.04736914191676201,21.285334106386703,180.12317975711585
17.008326529999284,17.999914568574013,58.7652768490312,9277.91796919603,0.046829734353010986,20.105444135960408,180.1264750008836
17.50832632999924,17.999909687345653,58.76429003127791,9321.368259570461,0.046151366041418354,18.975978357448092,180.12982716278208
18.008326129999194,17.9999046754635,58.76329719694485,9362.255779016188,0.04537023849783767,17.89801018209831,180.13322864275122
18.50832592999915,17.999899532532773,58.762298672300204,9400.679158302051,0.04451900905175337,16.8720748279987,180.1366717733248
19.008325729999104,17.999894258031265,58.761294745964356,9436.740216441376,0.043626952962688065,15.898217109085031,180.14014903324957
19.50832552999906,17.999888851319987,58.760285668196616,9470.54293982859,0.04272008143537763,14.97604436056785,180.14365323464034
20.008325329999014,17.99988331165128,58.759271651179695,9502.192530527018,0.04182124289937843,14.104782082381837,180.1471776776025
20.50832512999897,17.999877638174915,58.75825287013266,9531.79453250657,0.04095022894081946,13.28333001962699,180.1507162687173
21.008324929998924,17.999871829942812,58.757229465088066,9559.454042192263,0.04012389959108034,12.510316872881464,180.1542636024202
21.50832472999888,17.999865885912726,58.756201543175536,9585.275006838925,0.0393563359777312,11.784152245141723,180.15781500661592
22.008324529998834,17.999859804951264,58.75516918126703,9609.359611777909,0.03865902240090158,11.103074834332974,180.16136655576642
22.50832432999879,17.99985358583674,58.754132428853445,9631.807755300388,0.038041055182325846,10.465196237816144,180.16491505604705
23.008324129998744,17.999847230783992,58.75309127500121,9652.707253192171,0.313332312099411,9.86989897327848,180.1901384161479
23.5083239299987,17.99984062060519,58.75204587770684,9672.186345589605,0.5061160676435806,9.313141778542786,180.18462837968315
24.008323729998654,17.999833756117447,58.7509962195212,9690.305049877623,0.5237990268425962,8.786852128245737,180.1806475710927
24.50832352999861,17.999826642288674,58.74994234304255,9707.141254483098,0.4872771974015258,8.297373682070713,180.17848421182197
25.008323329998564,17.999819276953993,58.748884283263735,9722.772363705477,0.45538699340193234,7.842300263420787,180.18066333282192
25.50832312999852,17.999811653133104,58.747822068660845,9737.274981640961,0.44331497381267343,7.419439449160976,180.18620211737175
26.008322929998474,17.999803762185874,58.74675571846072,9750.723597549588,0.4447280839711988,7.0265670823239175,180.19337821921403
26.50832272999843,17.99979559518869,58.745685241403955,9763.189597798939,0.44966927270329804,6.661663109411831,180.2010414200224
27.008322529998384,17.99978714352121,58.74461063650333,9774.740870411128,0.45209629074699187,6.322858745561746,180.20877184900633
27.50832232999834,17.999778398951257,58.74353189770525,9785.441517886931,0.45081582703474216,6.005989060672918,180.2165880935475
28.008322129998295,17.99976935332105,58.742449019587,9795.351497759602,0.4475993348481143,5.711519510265693,180.22466203539622
28.50832192999825,17.999759998346953,58.74136199347615,9804.527412720841,0.44417963103061503,5.437922538147734,180.23305230045978
29.008321729998205,17.99975032588204,58.740270808758744,9813.022751139137,0.44103762178040323,5.183844182404973,180.24171444427324
29.50832152999816,17.99974032817115,58.73917546301408,9820.88783046688,0.4381116698558366,4.947987127909655,180.2505545304048
30.008321329998115,17.99972999788405,58.73807596094963,9828.169870895925,0.43523392428934204,4.729182731737943,180.25951432267024
30.50832112999807,17.999719328058784,58.73697230753332,9834.913360526545,0.4322815146264665,4.52688754507913,180.26856787113377
31.008320929998025,17.999708312058495,58.73586450811513,9841.160135034148,0.42942094669764164,4.338909392440681,180.2776876033148
31.50832072999798,17.99969694356995,58.734752568648354,9846.949151160363,0.4267692869824413,4.164269858232877,180.28686794474288
32.00832052999794,17.99968521672319,58.73363649601604,9852.316651386622,0.4240662287879806,4.001956733084223,180.2960937360499
32.50832032999789,17.99967312622428,58.73251629820191,9857.296282025152,0.42104458661816363,3.8510301544508354,180.3053373860412
33.00832012999785,17.99966066721967,58.73139198434591,9861.919197014424,0.41799063574750567,3.7106209237296226,180.31458915222422
33.5083199299978,17.9996478351016,58.73026356497974,9866.214242819971,0.4152310000550693,3.579919893938057,180.32386150433175
34.00831972999776,17.99963462551377,58.72913105218396,9870.20812626231,0.41272303786037023,3.458169677226415,180.33314917599355
34.50831952999771,17.999621034435663,58.727994459585005,9873.925531953908,0.4102504373987292,3.3446664736791245,180.3424345175199
35.00831932999767,17.999607058184704,58.72685380230139,9877.389228769784,0.4077509603336497,3.238761191146586,180.35170941674298
35.50831912999762,17.99959269336309,58.72570909693037,9880.620197034745,0.4052866355373353,3.1398538595802927,180.3609758669779
36.00831892999758,17.999577936825087,58.72456036152851,9883.637755686772,0.40290173751403485,3.04738824469909,180.37023360069927
36.508318729997534,17.999562785665294,58.723407615559026,9886.459676429076,0.40058880601671837,2.960849663113513,180.37947864485363
37.00831852999749,17.999547237212532,58.722250879821566,9889.102289785114,0.39831525624072606,2.87976323227531,180.38870713721468
37.508318329997444,17.99953128902372,58.721090176373814,9891.580585471747,0.39605663301354843,2.8036914866968834,180.39791643751173
38.0083181299974,17.999514938870785,58.719925528448954,9893.908308040873,0.3938136183416356,2.7322317368737594,180.40710494952484
38.508317929997354,17.99949818472299,58.718756960375984,9896.098049390594,0.39159508892047046,2.665013320960811,180.41627140511085
39.00831772999731,17.999481024734543,58.717584497500035,9898.161336297342,0.38939717099400184,2.6016952603676855,180.42541404830135
39.508317529997264,17.999463457240353,58.716408166101424,9900.10871185282,0.38719959135576726,2.5419642943174754,180.43453073690682
40.00831732999722,17.99944548075646,58.71522799331376,9901.94981096583,0.3849777029781254,2.4855330412114642,180.44361940202617
40.508317129997174,17.99942709398262,58.71404400704559,9903.693431526644,0.38270621054062404,2.432138019619611,180.4526780776021
41.00831692999713,17.99940829575645,58.712856235881304,9905.347591958205,0.3804984315912375,2.3815393773019253,180.46170800932973
41.508316729997084,17.999389084994693,58.71166470904079,9906.919606648717,0.3784130238652074,2.3335156271252537,180.4707105967855
42.00831652999704,17.99936946077173,58.710469456356506,9908.41616029417,0.3761898325709252,2.2878611134649693,180.47967766993932
42.508316329996994,17.99934942247852,58.70927050817192,9909.843344143626,0.37352652590861757,2.2443903322066228,180.48859929694947
43.00831612999695,17.999328970048015,58.708067895309426,9911.206715703294,0.36993007700179636,2.2029317229760292,180.49746195230145
43.508315929996904,17.999308104197496,58.7068616489507,9912.511318851346,0.3650787503615231,2.16333232672764,180.50625026065129
44.00831572999686,17.999286826322148,58.70565180046544,9913.761683356486,0.35950808944596746,2.1254600873465406,180.51496831474088
44.508315529996814,17.999265138219414,58.704438381331784,9914.96172928285,0.35370159009646124,2.088757976799992,180.52360827168923
45.00831532999677,17.999243042067146,58.70322142340731,9916.114118338886,0.3480739497679937,2.0523588870565397,180.53212010323017
45.508315129996724,17.99922054020528,58.70200096044335,9917.221980177766,0.34265285167134923,2.0174925689892813,180.54050998996155
46.00831492999668,17.999197635209587,58.700777026529636,9918.28839282632,0.3368165519861061,1.983980419517055,180.5487729162713
46.508314729996634,17.99917433013581,58.699549655854874,9919.316193542094,0.33021588750473163,1.9517387339567671,180.55690904664266
47.00831452999659,17.99915062833551,58.69831888253455,9920.307940867138,0.3236069821443625,1.9206979799244548,180.56494233913287
47.508314329996544,17.999126533118368,58.69708474075116,9921.26600540076,0.3173842951428527,1.8907781318149826,180.5728780927538
48.0083141299965,17.999102047796104,58.69584726478865,9922.192605902876,0.31113827101458863,1.8619027817348623,180.58070049358554
48.508313929996454,17.99907717596061,58.69460648896486,9923.089799123625,0.3042230925830121,1.8340061412604411,180.58839810144804
49.00831372999641,17.999051921596205,58.6933624474692,9923.959434903538,0.2968152181051102,1.8070370527057884,180.59597970281902
49.508313529996364,17.999026288774072,58.69211517433365,9924.803172501577,0.28974482392074224,1.7809457701158045,180.60346162190322
50.00831332999632,17.999000281416446,58.69086470358435,9925.622566694294,0.2830459948198197,1.7556732254435086,180.61083547031083
50.508313129996274,17.99897390337971,58.68961106919016,9926.419059530068,0.27641373524768537,1.7311714658809352,180.61809384397452
51.00831292999623,17.99894715858979,58.68835430502605,9927.193979249276,0.26956026135363137,1.7073976263319426,180.62523657451845
51.508312729996184,17.998920051079853,58.68709444479229,9927.948522702689,0.2626754977306167,1.684316449724186,180.6322715818826
52.00831252999614,17.998892584871246,58.685831522042164,9928.683784393359,0.2559739702384845,1.6618904652801672,180.63920237059256
52.508312329996095,17.99886476393943,58.68456557020567,9929.400779601565,0.24938240118727661,1.6400833876563725,180.64602551643827
53.00831212999605,17.99883659227465,58.68329662256712,9930.100445518014,0.2427340598188722,1.6188635726330107,180.6527395378818
53.508311929996005,17.99880807383538,58.682024712188294,9930.783620464763,0.2363454862559827,1.5982066201106786,180.65935488712768
54.00831172999596,17.998779212029756,58.680749871804835,9931.451016173896,0.2316691756787248,1.5780955451901455,180.66590511211413
54.508311529995915,17.99875000967407,58.67947213429956,9932.103426490035,0.2271635664380423,1.5584770308625382,180.67235160319933
55.00831132999587,17.99872046959382,58.678191532260875,9932.741533776372,0.22257613149246006,1.5393468771224033,180.67871244412552
55.508311129995825,17.998690594205755,58.67690809790985,9933.36589579433,0.2193724647926789,1.520693297470045,180.68503083420018
56.00831092999578,17.998660385407184,58.675621863520625,9933.977134365052,0.21648224804577101,1.5024729557892489,180.69127572918245
56.508310729995735,17.99862984508249,58.67433286112586,9934.575804127426,0.21340658137817414,1.4846782857135714,180.6974555218771
57.00831052999569,17.998598975212396,58.67304112252839,9935.162407127702,0.21008493500877096,1.4672918181711296,180.70357892781394
57.508310329995645,17.998567777973626,58.671746679305386,9935.737402365394,0.20646264749925342,1.4502973373122834,180.7096438014505
58.0083101299956,17.99853625570789,58.670449562776994,9936.301199442583,0.20271185042081294,1.43368127438526,180.71565213276352
58.508309929995555,17.998504410777247,58.66914980400646,9936.854165937675,0.19914168800864931,1.4174302341137743,180.72160676557587
59.00830972999551,17.998472245491868,58.66784743386024,9937.396658055077,0.19561511842127954,1.4015278014082273,180.7275019519409
59.508309529995465,17.998439762088356,58.66654248293179,9937.928990701077,0.19237162050015702,1.385965924852431,180.73334541073163
60.00830932999542,17.998406962456002,58.665234981526844,9938.451437525851,0.1900863762842405,1.370735784053742,180.73915116746815
60.508309129995375,17.998373847452918,58.663924959584996,9938.964204410273,0.19049100081040482,1.3558348053969342,180.74495554072666
61.00830892999533,17.998340417196683,58.662612447340436,9939.467708790029,0.19005045917075636,1.3412142389473514,180.75069080675163
61.508308729995285,17.998306672380668,58.661297474563874,9939.962235104515,0.1885373786064841,1.3268987938101615,180.75639924762268
62.00830852999524,17.998272612752043,58.65998007015646,9940.447790616185,0.19195619357075588,1.312911576778514,180.7621947818193
62.508308329995195,17.998238290276934,58.65866026442378,9940.07232084049,0.08432034891702768,-4.318713947456903,180.75744065773458
63.00830812999515,17.998203880177897,58.657339520867126,9935.279424705739,0.07244415387698355,-7.771042333969148,180.75749668209318
63.508307929995105,17.998169478347457,58.65602032727404,9924.600819520945,0.06450384778115296,-10.197178132303206,180.7593542309807
64.00830772999507,17.998135121992227,58.65470422876141,9907.901448159206,0.058502292760708355,-12.52936759129434,180.7614265822237
64.50830752999502,17.99810084274897,58.6533925999064,9885.18927207815,0.0536286816522721,-14.835880395603889,180.7635252925149
65.00830732999498,17.998066673057014,58.652086796739134,9856.490392675585,0.04948355421891639,-17.118259465805863,180.7656045336309
65.50830712999493,17.99803264622227,58.650788164159,9821.84027246942,0.045847985062940994,-19.37399847342274,180.76764795434892
66.00830692999489,17.997998796087366,58.649498030856805,9781.28280721213,0.0425903659180564,-21.600714500511007,180.7696495051594
66.50830672999484,17.99796515674258,58.64821770408215,9734.869811345261,0.03962474371202427,-23.79641615447227,180.77160695348587
67.0083065299948,17.997931762291216,58.64694846510047,9682.660333883081,0.03688862585359604,-25.967873998917753,180.7735105162968
67.50830632999475,17.997898647789363,58.645691600170835,9624.706399185732,0.03431593176004402,-28.183099391102,180.77528893310347
68.00830612999471,17.997865853829545,58.644448562296176,9561.020867456846,0.031905119367840185,-30.41566474826122,180.77696689692633
68.50830592999466,17.997833425510105,58.64322094734867,9491.601138457696,0.029646378877175274,-32.65338277709071,180.7785595040749
69.00830572999462,17.997801410608393,58.642010433845066,9416.445844225815,0.027520005968569076,-34.896008720693075,180.7800698360022
69.50830552999457,17.997769859404947,58.64081877894571,9335.557266217153,0.025506021830287287,-37.14421798125556,180.78149859125529
70.00830532999453,17.997738824711107,58.639647821397936,9248.942335784375,0.02358691964275944,-39.398809601490505,180.78284537282482
70.50830512999448,17.997708361900962,58.63849948445797,9156.613620420965,0.021748353823336376,-41.66065689816107,180.78410904614958
71.00830492999444,17.99767852845611,58.637375760701765,9058.591097092733,0.01995720578738911,-43.85672895153907,180.78532419708617
71.50830472999439,17.997649299032098,58.63627561189584,8955.221687307707,0.017844375106751652,-44.143248590804674,180.78734430621884
72.00830452999435,17.997620361923662,58.63518754856121,8847.928746976304,0.015487460298382882,-43.07243504401039,180.78972093413998
72.5083043299943,17.997591277092667,58.634095426131516,8738.516607757607,0.013191321041435061,-41.708535850100084,180.79191491883785
73.00830412999426,17.99756170823517,58.632986969918946,8628.510227137685,0.01113118599054897,-40.16236805010403,180.79393437876803
73.50830392999421,17.99753143835278,58.63185434381256,8519.15535151239,0.009401940914805257,-38.45691267089996,180.79581083464015
74.00830372999417,17.997500314346148,58.63069209109386,8411.471192971801,0.008026173954289091,-36.62175804487359,180.79757420571002
74.50830352999412,17.997468231703586,58.62949657067985,8306.307557985208,0.006985722770467922,-34.68725186266135,180.79926324773157
75.00830332999408,17.997435124990957,58.628265605935326,8204.377621105805,0.006242025679776735,-32.6794463418046,180.80091633195275
75.50830312999403,17.997400962011888,58.62699826673848,8106.283279182557,0.005750508347787093,-30.625100147599134,180.80256590041546
76.00830292999399,17.997365738273086,58.62569465984968,8012.5260662224355,0.005468689280308884,-28.550424005435197,180.8042371595749
76.50830272999394,17.99732472194648,58.62435477812919,7923.700798440555,18.762625567545996,-23.13310881029887,181.94869377165475
77.0083025299939,17.99722001699196,58.622973377785996,7842.76510205749,38.989493245270474,-19.429703920059843,185.23882594207487
77.50830232999385,17.9969785039851,58.6215626272451,7769.790323300877,53.10929060734959,-17.44197209620673,189.3298589361259
78.00830212999381,17.996589837829358,58.620139639375004,7701.847386107228,63.61963289472146,-18.769994674963723,189.75680305103106
78.50830192999376,17.996094918097977,58.61871441416759,7635.602097279347,70.45176810015123,-18.9055213008012,192.15790591149707
79.00830172999372,17.99549645629504,58.61729227077418,7569.993596677691,74.8297699828535,-19.073567683494566,194.68296896814573
79.50830152999367,17.99479053562227,58.61587781493697,7504.502441376391,77.61218685664322,-19.304490289247195,197.1557535590413
80.00830132999363,17.99397480104014,58.614475033017975,7438.788442500616,79.36024341136354,-19.563474785356934,199.5923882603743
80.50830112999358,17.993048267760436,58.61308743759371,7372.628200047505,80.4412113960972,-19.829556686584613,202.01385201105694
81.00830092999354,17.99201077702942,58.61171822491448,7305.879886643431,81.09493383059683,-20.092098753721114,204.43344936896983
81.5083007299935,17.990862687411305,58.61037039071984,7238.457663922084,81.47725739433562,-20.34603446899203,206.8592040552704
82.00830052999345,17.98960472307317,58.6090468076641,7170.313507833284,81.68878973874297,-20.589197494524587,209.29605514915872
82.5083003299934,17.98823790360997,58.607750275034,7101.4246563909,81.79399438110461,-20.8208905586479,211.74713801813775
83.00830012999336,17.986763514637953,58.60648354950497,7031.785096715901,81.83383770236054,-21.041119690312254,214.21450015092222
83.50829992999331,17.985183098558835,58.60524936307842,6961.399862039173,81.83412266523163,-21.250190149207256,216.69950831660594
84.00829972999327,17.983498455118298,58.604050432351144,6890.281246665019,81.81094491854412,-21.448500690445066,219.2030883225966
84.50829952999322,17.981711646485238,58.602889461890015,6818.446313105742,81.77423909007912,-21.636445835484633,221.725871859722
85.00829932999318,17.97982500414193,58.60176914356125,6745.915261186687,81.73006582965532,-21.814375613212952,224.26828978817036
85.50829912999313,17.977841136179933,58.60069215304682,6672.7103671837185,81.68207455169872,-21.982584582213693,226.83063315449292
86.00829892999309,17.97576293426456,58.59966114437081,6598.855296869329,81.63243073154494,-22.14131465308869,229.41309392502674
86.50829872999304,17.973593579874382,58.59867874298534,6524.374661944145,81.58239818296818,-22.29076345181242,232.0157925230579
87.008298529993,17.971336549597538,58.59774753778465,6449.293733483291,81.53270089405977,-22.431094026291962,234.6387965729747
87.50829832999295,17.968995619353283,58.59687007229768,6373.638255919397,81.48374527409118,-22.562443936238815,237.282133702968
88.00829812999291,17.966574867448053,58.5960488352311,6297.434324673164,81.43575485667716,-22.684932960187872,239.94580030829542
88.50829792999286,17.964078676393203,58.59528625048596,6220.708303697911,81.38885067542434,-22.798669257755392,242.62976756653433
89.00829772999282,17.96151173341726,58.59458466674005,6143.4867676865015,81.34309832027333,-22.903754104272103,245.33398558914226
89.50829752999277,17.958878949614952,58.59394654367553,6065.801962709597,79.51003966848502,-22.859591518278528,248.3978739917202
90.00829732999273,17.956154886446107,58.59340837978849,5989.904739589763,52.83340623532867,-19.548300772053338,257.555649665802
90.50829712999268,17.95330570161072,58.59299916868242,5922.518284159693,35.08144147748274,-14.98782985837345,261.7488050757523
91.00829692999264,17.950354182336365,58.592690963865465,5867.956433477783,23.144810605272873,-9.639324511658595,264.2060910267117
91.5082967299926,17.947336448289647,58.59244344770199,5829.914099880902,-17.44017884677567,-2.818373060471157,263.0610792059643
92.00829652999255,17.944297925833368,58.59218662343499,5807.256523908932,-5.6420663446017825,2.2674956910370323,261.4074788972119
92.5082963299925,17.941269995334967,58.591919968534626,5800.843670529467,-4.828149493725322,7.320469476815642,260.4374929490247
93.00829612999246,17.938282438170553,58.59164548809832,5810.6265229511,-4.431960212991744,12.493556916762763,259.72434781412727
93.50829592999241,17.935362305904214,58.59136618080409,5835.926323357308,-4.130425667220298,17.61891040742214,259.15037748463646
94.00829572999237,17.932533737072426,58.59108522601179,5875.8756411558425,-3.906034615057227,22.646859478943938,258.65840958820746
94.50829552999232,17.92981664033662,58.59080570295291,5929.381483952451,-3.7604224182416552,26.392221501749983,258.30311967307347
95.00829532999228,17.927200367082488,58.59052896641941,5992.965783113641,-3.982870213029538,26.199282630232325,258.26448243402575
95.50829512999223,17.924642786275246,58.59025396028941,6061.165821723256,-4.2625257966458925,25.279191779383904,258.28961866839785
96.00829492999219,17.92211085252427,58.5899795710219,6130.339154851887,-4.5790804936861305,23.996082084021868,258.3532804570329
96.50829472999214,17.919584842224392,58.58970536045909,6198.166977585349,-4.917700071047695,22.552139362592907,258.4396577772661
97.0082945299921,17.91705501876816,58.58943140419002,6263.234306286756,-5.274765818675289,21.0404777483036,258.54117155058816
97.50829432999205,17.91451664711152,58.589157908531355,6324.766811219511,-5.644614353440701,19.520701629600556,258.6517315707839
98.00829412999201,17.911967771457764,58.58888510404942,6382.383754685918,-6.022426300372375,18.03168494959209,258.7661949158213
98.50829392999196,17.90940801954117,58.58861319786317,6435.947659786034,-6.404592035403726,16.598211518427707,258.88031518663405
99.00829372999192,17.90683786160194,58.588342345654326,6485.473482751751,-6.787180811457254,15.235592095292876,258.9906028219072
99.50829352999187,17.904258161117323,58.58807263846983,6531.071721988034,-7.166939963994821,13.95263673572702,259.09427216134617
100.00829332999183,17.901669910318496,58.587804099681335,6572.911720534328,-7.542070082342285,12.753643206959945,259.18919278508486
100.50829312999178,17.89907408210923,58.587536688158,6611.19753701638,-7.911132125877527,11.639762368573306,259.2737768025859
101.00829292999174,17.896471553010187,58.58727030481581,6646.151732110101,-8.272418215860027,10.609951038741603,259.3468760728807
101.5082927299917,17.893863067389905,58.58700480090894,6678.004154123426,-8.624240797957128,9.661642867599596,259.40771469047536
102.00829252999165,17.891249229066922,58.58673998677281,6706.984463629336,-8.965385709161689,8.791290090527825,259.45583063012396
102.5082923299916,17.888630507491175,58.58647564051537,6733.317039943869,-9.295039019296928,7.994705695050391,259.4910246235498
103.00829212999156,17.886007250046177,58.58621151626818,6757.217473517499,-9.612756383388785,7.266871498508592,259.5134373944013
103.50829192999151,17.883379696634623,58.58594735180105,6778.890169107646,-9.919332120426272,6.603896087125635,259.52312700009674
104.00829172999147,17.880749079930943,58.58568270315504,6798.655310908815,-16.229449186399997,6.016042161652974,259.52757348785417
104.50829152999142,17.87811576683437,58.585416910747796,6816.612855956778,-21.65456254839395,5.477119531127984,259.6149129723464
105.00829132999138,17.875479288715763,58.585149482506964,6832.765415846077,-25.78043808510973,4.982844879846176,259.6907822101568
105.50829112999133,17.872839328403316,58.58487999645856,6847.166008648915,-28.998025003163036,4.5321623764812315,259.7235905876702
106.00829092999129,17.870195625046033,58.58460796424079,6859.895974823007,-31.538097943544145,4.123816641749573,259.6984809080737
106.50829072999124,17.86754805959889,58.58433273436514,6871.064099940688,-33.542601912948726,3.757544819848099,259.6090806232329
107.0082905299912,17.864896806742117,58.5840534281427,6880.81115061071,-35.10270304263196,3.432616336094069,259.4544732168504
107.50829032999115,17.862242181374157,58.58376904709282,6889.286858461699,-36.284360307209646,3.146290336279102,259.23825678830775
108.00829012999111,17.859584565465454,58.58347854244454,6896.640811125577,-37.13984575040669,2.8954657875222325,258.9663327658841
108.50828992999107,17.856924365989872,58.583180873113605,6903.017451366386,-37.7131206753463,2.6779448121398075,258.64509971200937
109.00828972999102,17.854261984762836,58.58287505375238,6908.5528486970015,-38.0459231286397,2.4892680476836375,258.2832282904639
109.50828952999098,17.851597816560663,58.58256020913028,6913.370292642975,-38.17648840994006,2.3255988230487725,257.88901793492767
110.00828932999093,17.848932335907428,58.582235605476534,6917.579337330973,-38.14470332804136,2.182197766267329,257.4706342525063
110.50828912999089,17.846266114385454,58.581900664259074,6921.274944710809,-37.98992134104046,2.057406778924798,257.03364076616424
111.00828892999084,17.843599685768037,58.58155492424979,6924.540886073837,-37.74461439905304,1.948705782090786,256.58376074107144
111.5082887299908,17.84093352677441,58.58119803744508,6927.449370053038,-37.43311604863065,1.8536632015156296,256.125829115917
112.00828852999075,17.83826805975752,58.58082975822788,6930.061797003303,-37.06966668998331,1.770115258481029,255.6637340597361
112.5082883299907,17.83560365909719,58.58044992960555,6932.430134422785,-36.66781205988578,1.6961779973543292,255.20054559183274
113.00828812999066,17.83294065541541,58.58005847058789,6934.597942312745,-36.24125536185251,1.6302163502396663,254.73865304516207
113.50828792999062,17.83027933901703,58.579655363905914,6936.601182882384,-35.80295349068149,1.570822001877188,254.27986507210233
114.00828772999057,17.82761996678711,58.579240641943585,6938.469306326965,-35.36689594423166,1.516822852743825,253.82544952716603
114.50828752999053,17.824962761904967,58.578814377830405,6940.225408078838,-34.942321160919626,1.4671953002510472,253.37629486995428
115.00828732999048,17.822307919677616,58.57837667353927,6941.887174625436,-34.53902179348512,1.421119077902922,252.9328859207335
115.50828712999044,17.81965560692944,58.57792765278637,6943.467042850703,-34.16495439112855,1.3779092185881991,252.49542199998507
116.00828692999039,17.817005975869417,58.57746744670923,6944.974022963887,-33.82530380681469,1.337117537369382,252.06379926899302
116.50828672999035,17.814359169356507,58.57699618724992,6946.414454795355,-33.518943557409514,1.2983989769345694,251.63778455900749
117.0082865299903,17.811715323049945,58.576514004020794,6947.792579539034,-33.24169888219899,1.2614930160947049,251.2170572507844
117.50828632999026,17.80907456862766,58.57602102155595,6949.11126957365,-32.995199427716926,1.2262356980700648,250.80119218772464
118.00828612999021,17.80643703750292,58.575517356406586,6950.372537744182,-32.78133996449184,1.1925227074441835,250.38973898592909
118.50828592999017,17.80380286280826,58.57500311560326,6951.577759794465,-32.59772972761555,1.1602758640962103,249.98225394094322
119.00828572999012,17.801172180244883,58.57447839630964,6952.727851679671,-32.446493722750326,1.1294447375389822,249.57823953002293
119.50828552999008,17.79854513022589,58.57394328456368,6953.823444027642,-32.33008244715908,1.100001127170168,249.1771908086088
120.00828532999003,17.795921859102553,58.573397854584364,6954.86490151906,-32.24805316796975,1.0719205829270704,248.77860642572222
120.50828512998999,17.793302519671773,58.57284216885525,6955.852371895409,-32.19827773531441,1.0451856009144378,248.38198178397533
121.00828492998994,17.79068727165873,58.5722762785649,6956.785916063217,-32.1774030218038,1.019785720059971,247.98682784783765
121.5082847299899,17.78807628179468,58.57170022449802,6957.66564047379,-32.1811386654823,0.9957159216874194,247.59268774697418
122.00828452998985,17.78546972364059,58.57111403820847,6958.491825139332,-32.20542496445629,0.9729748385558387,247.19914352583132
122.5082843299898,17.782867777454534,58.5705177431274,6959.265020580385,-32.24849529204347,0.9515637073347977,246.80580861047162
123.00828412998976,17.780270630305182,58.569911355352964,6959.986084628624,-32.307440193686496,0.9314784447147297,246.41235532133868
123.50828392998972,17.777678475327242,58.56929488489105,6960.656143834564,-32.379557072608776,0.912704262667127,246.01849736333938
124.00828372998967,17.77509151110488,58.56866833680187,6961.276588537351,-32.46137555866362,0.8952203298006719,245.62400042671433
124.50828352998963,17.772509940848813,58.56803171250413,6961.849081892869,-32.54875980123828,0.8789980729566774,245.22868470348206
125.00828332998958,17.769933971406285,58.56738501114661,6962.375570493785,-32.639525536152135,0.8640044602955803,244.83240834244847
125.50828312998954,17.767363812791192,58.56672823049062,6962.858277414796,-32.73271925588566,0.8502019820880904,244.4350721246549
126.00828292998949,17.76479967766811,58.566061367607894,6963.299632674274,-32.82749788350846,0.8375444451141045,244.03661541295708
126.50828272998945,17.762241780737963,58.56538441948434,6963.702179961205,-32.92455275581651,0.8259788210534716,243.63699129495114
127.0082825299894,17.759690338619606,58.564697383172245,6964.06848670722,-33.02528713245784,0.8154475807164431,243.23616207880877
127.50828232998936,17.75714556973984,58.56400025583149,6964.401045140738,-33.12937129192061,0.8058869830631687,242.83410636518144
128.0082821299893,17.754607693516018,58.56329303525571,6964.70220839983,-33.23298783350715,0.7972269591945349,242.4308337082025
128.50828192998927,17.752076928949393,58.5625757209845,6964.974237908506,-33.33137809784422,0.7893993478589477,242.02637909223972
129.00828172998922,17.749553493396608,58.561848315470236,6965.219431869739,-33.42011992469016,0.7823428475082133,241.62081828487553
129.50828152998918,17.747037601611282,58.561110825007596,6965.440222333253,-33.49929212232209,0.7760045310372083,241.21423959754094
130.00828132998913,17.74452946574727,58.560363259914716,6965.63920105809,-33.56697607724692,0.7703300310331644,240.80679487273122
130.5082811299891,17.74202929382151,58.559605635459356,6965.819047581822,-33.61963386734322,0.7652549446837589,240.39868092908773
131.00828092998904,17.739537288198854,58.558837972772665,6965.982512071565,-33.6584966078039,0.7607166857810038,239.99008712932536
131.508280729989,17.73705364575422,58.558060298689064,6966.132401827804,-33.684054589294895,0.7566529567008486,239.58123882733847
132.00828052998895,17.734578557115913,58.55727264585502,6966.271456214807,-33.69807404578539,0.752995905739877,239.17235350570107
132.5082803299889,17.73211220644248,58.556475052526395,6966.40226973264,-33.70006903494675,0.7496746924103993,238.7636658710602
133.00828012998886,17.729654770319488,58.55566756288292,6966.527242610658,-33.68718550252368,0.7466154919831897,238.35542617566026
133.50827992998882,17.727206416667066,58.55485022739865,6966.648602089593,-33.66200684612046,0.7437544567521579,237.9478391073485
134.00827972998877,17.724767306092506,58.55402310177513,6966.768415704266,-33.631211704308676,0.7410410752576205,237.54106988784636
134.50827952998873,17.722337593428122,58.55318624554021,6966.888468295312,-33.59493110063355,0.7384192070640744,237.13530785513242
135.00827932998868,17.719917426413343,58.55233972221538,6967.010151286251,-33.54942270026753,0.7358259369121527,236.73073343459995
135.50827912998864,17.717506944554742,58.55148359974885,6967.134571977997,-33.49379386062199,0.7332126306651594,236.32749138078702
136.0082789299886,17.715106279686538,58.55061795019079,6967.26271224762,-33.42846902854664,0.7305470778696042,235.92572398151398
136.50827872998855,17.712715556474766,58.54974284922738,6967.395456298051,-33.35624536515682,0.7278046816236524,235.52555059894712
137.0082785299885,17.710334893683914,58.54885837515846,6967.533535483405,-33.28397525487895,0.7249677875640472,235.12703537438261
137.50827832998846,17.707964406542807,58.54796460716339,6967.6774014158345,-33.217717577432175,0.7220200533398813,234.7302043959002
138.0082781299884,17.705604208079066,58.547061624044346,6967.827076402751,-33.157500554442365,0.7189388607400208,234.33507065955766
138.50827792998837,17.703254408543646,58.546149504173705,6967.982144160971,-33.09934228901023,0.7157025628019764,233.9416283586894
139.00827772998832,17.70091511476499,58.5452283258395,6968.141926082299,-33.04209979370323,0.7123070065989882,233.54982930414957
139.50827752998828,17.698586431377933,58.544298166805824,6968.305676200274,-32.98920808982106,0.7087690552754989,233.15958942307853
140.00827732998823,17.696268463095414,58.543359103180535,6968.472609885737,-32.94587919913442,0.7051138021791755,232.7707990346275
140.5082771299882,17.693961316685773,58.54241120822094,6968.641796312285,-32.916342641187775,0.701363748682689,232.38332041349176
141.00827692998814,17.691665102311976,58.54145455142702,6968.812050440285,-32.903065845606875,0.6975384853715085,231.99698035689363
141.5082767299881,17.68937993453712,58.54048919792651,6968.981905549899,-32.90711732549293,0.6936599677784598,231.61156931956083
142.00827652998805,17.687105933247288,58.53951520806164,6969.14966060147,-32.92900329607414,0.6897569820828514,231.22684473353704
142.508276329988,17.684843224552115,58.538532637131695,6969.313469921637,-32.96767500110293,0.6858649264982023,230.8425529690854
143.00827612998796,17.682591941019528,58.53754153554095,6969.471445563546,-33.02056220418897,0.6820233073754816,230.45844218012363
143.50827592998792,17.680341920567038,58.53654875673634,6968.048744312025,-23.653372890594397,-4.050775973498415,232.70544914817953
144.00827572998787,17.678072185832132,58.53557325940919,6960.101713233483,-17.139988242589904,-7.4824044246405705,233.54989263066562
144.50827552998783,17.675787890313003,58.53461815197791,6943.982623814357,-12.833993648924901,-10.58704602709389,233.93838222291717
145.00827532998778,17.6734988815991,58.53368227389072,6919.449241959984,-9.83560100519878,-13.63161924883789,234.15036213801287
145.50827512998774,17.671214234061697,58.532764732258975,6886.487775228945,-7.654550343638761,-16.632654352741397,234.27295214892496
146.0082749299877,17.668942048816664,58.53186512636474,6845.151353203261,-6.014914086985631,-19.595006550603188,234.34785700332984
146.50827472998765,17.66668961613409,58.53098346121781,6795.523438288254,-4.753454416968575,-22.525558841736142,234.39663239674206
147.0082745299876,17.66446359571361,58.53012006607779,6737.703096022511,-3.767944711758029,-25.431407672049986,234.43061395166453
147.50827432998756,17.662270176214065,58.529275533939106,6671.798144392303,-2.990537637392351,-28.31885170644278,234.45585446109425
148.0082741299875,17.66011520675986,58.528450676671824,6597.922398174477,-2.3737503727621196,-31.19319522615203,234.47565157380754
148.50827392998747,17.65800430149747,58.52764649100629,6516.195201692311,-1.8828674641289498,-34.0588421996562,234.49184942280806
149.00827372998742,17.6559413448763,58.5268634918611,6426.879305012029,-1.474893599622494,-35.34031097135616,234.45153997396145
149.50827352998738,17.65390585721906,58.526092569633185,6332.4716456500055,-1.121893980471896,-34.13147415798639,234.34969210583108
150.00827332998733,17.651861882672137,58.525318909756024,6236.6396346636775,-0.8345517926288571,-32.54241133313373,234.26865598153148
150.5082731299873,17.64978765765968,58.52453375949134,6141.882215492579,-0.6093302685848244,-30.768316240865907,234.20908925961888
151.00827292998724,17.64767290003008,58.523733068588726,6049.844312994647,-0.438321207205652,-28.876699558389163,234.16717434262495
151.5082727299872,17.645512820209188,58.52291511946802,5961.607708310545,6.285972996685161,-25.35211075485127,234.41060072390113
152.00827252998715,17.643270625207776,58.52208704217286,5880.835974759579,30.231684585966587,-18.819138456966417,237.0477640314909
152.5082723299871,17.64088767543978,58.52129078063344,5811.347280073124,46.87723297449967,-15.121042214651418,241.52053699625785
153.00827212998706,17.638363886499967,58.5205646072488,5751.065725537026,58.9452378695141,-15.033075025342994,243.41935436512526
153.50827192998702,17.635752355554466,58.51989847352148,5694.944509273285,67.24272832250328,-15.008436786506161,245.6980714812758
154.00827172998697,17.633077499268584,58.51928684171686,5640.619039397103,72.62787316593865,-14.898496682529878,248.4609263474418
154.50827152998693,17.630346327423357,58.518734524540605,5587.262489028776,76.10741884919685,-14.903090056909745,251.2189995318819
155.00827132998688,17.627565166850403,58.518245685407834,5534.362191963602,78.34565449216575,-14.982106555047281,253.95158610633587
155.50827112998684,17.624740572361322,58.51782328117621,5481.575881768013,79.77669532705308,-15.102774655917724,256.67175941981964
156.0082709299868,17.62187918122237,58.51746946706381,5428.6784384439825,80.6844357089289,-15.245551875665228,259.38923527097927
156.50827072998675,17.618987646882704,58.517185882053674,5375.525048417527,81.25425844100143,-15.39900841809957,262.10992349079373
157.0082705299867,17.61607263626857,58.51697380821411,5322.025053843391,81.60685392681987,-15.556468085681114,264.8374482746495
157.50827032998666,17.61314084683948,58.516834257115136,5268.123900351432,81.82049194701442,-15.714052014743297,267.5741078256118
158.0082701299866,17.61019902452795,58.51676801629069,5213.790912395355,81.94571061142,-15.869529358110656,270.32140728195185
158.50826992998657,17.60725397636341,58.51677567359195,5159.01111567683,82.01498997805074,-16.02163584005828,273.0803585207075
159.00826972998652,17.604312576605555,58.5168576291011,5103.779813714263,82.04910324383846,-16.16966919444711,275.85165547391114
159.50826952998648,17.601381766959545,58.51701409996905,5048.099014970863,82.0612701294239,-16.313250029095755,278.6357811587644
160.00826932998643,17.598468551897135,58.51724512123362,4991.9750921544855,82.05986088912604,-16.45218165288537,281.43307561250236
160.5082691299864,17.5955799900867,58.51755054440552,4935.417256112793,82.0501483363382,-16.586368882832875,284.2437803411869
161.00826892998634,17.5927231827683,58.51793003489025,4878.436564782742,82.03543740539888,-16.715771749695815,287.0680680086245
161.5082687299863,17.589905259724638,58.51838306889837,4821.045281706522,82.01778966632277,-16.840379644573456,289.9060625089894
162.00826852998625,17.58713336333775,58.51890893024884,4763.256461453846,81.99848558266797,-16.96019728020024,292.75785261746546
162.5082683299862,17.58441463109497,58.51950670732502,4705.08368177062,81.97831783375064,-17.075237364225337,295.6235012902982
163.00826812998616,17.581782499650927,58.52020202322505,4648.08919547841,57.33903829804251,-14.299217566513185,304.7339834006771
163.50826792998612,17.57927975011237,58.52103755594811,4599.357431662533,38.203228873743335,-9.665566724678952,309.6444292436964
164.00826772998607,17.576875182257545,58.52197469130615,4565.997475059513,-16.70693320145469,-2.167828094050764,309.7759663162184
164.50826752998603,17.574462234379308,58.52292175228829,4548.861357372996,-4.386228321042026,3.688041159019338,307.8713223979033
165.00826732998598,17.572055790865992,58.52386051457409,4548.76273671096,-2.5386178364823033,9.17277525156463,307.1327265534816
165.50826712998594,17.56967866775816,58.52478220639488,4564.817528337819,-2.368087599746889,11.050017475943692,306.79749895782646
166.0082669299859,17.567329346908295,58.52568953622828,4590.6777668794875,-2.397774452516426,11.164023822745866,306.65338766316944
166.50826672998585,17.564997043433568,58.526588446319394,4620.95857521911,-2.502181523410494,10.748467850344436,306.58385845572985
167.0082665299858,17.562672497576948,58.52748351870848,4652.503579529071,-2.6498152887777717,10.083177386803284,306.5533893335381
167.50826632998576,17.560351393461517,58.5283770087133,4683.472043701092,-2.824683136946601,9.320953645217418,306.5438467608465
168.0082661299857,17.55803213441303,58.529269843791596,4712.890249810177,-3.0160298816507742,8.535900383596697,306.5461138869365
168.50826592998567,17.55571406422698,58.53016241554003,4740.308366005558,-3.2141054440811776,7.768324213331378,306.55441005282916
169.00826572998562,17.55339685584427,58.53105488558801,4765.56768703529,-3.413894288647632,7.039688226842667,306.5649197591912
169.50826552998558,17.551089799040565,58.53194167137001,4792.393627091056,-2.337534645307468,16.90466854481009,306.043007190733
170.00826532998553,17.548836941890094,58.53280128177494,4832.115268010706,-1.6116861510681202,22.709240709055486,305.82451546084917
170.5082651299855,17.546669825661084,58.53362326520172,4885.899098997975,-1.0864090948607423,27.988086661377597,305.7046969389705
171.00826492998544,17.544607558548535,58.53440239003763,4952.6199464288775,-0.7140789070764862,33.15648171748626,305.63729161879354
171.5082647299854,17.542665400534382,58.535134340211016,5031.02533888768,-0.4562096389749408,38.397162001462256,305.60065550772714
172.00826452998535,17.54085649041136,58.535815144970385,5119.9781097188115,-0.27928034102505706,42.88301042427,305.5890507346682
172.5082643299853,17.53916943775889,58.53644973460759,5216.981897607333,-0.15655517198094349,43.8850096325583,305.60551024318545
173.00826412998526,17.537565050826167,58.53705316126864,5318.38193374512,-0.080337976959532,44.376840192837655,305.618032406957
173.50826392998522,17.53601528888978,58.53763606123776,5421.905794346327,-0.03601573691287141,44.62871156761026,305.62621745354903
174.00826372998517,17.534502506228904,58.538205086584426,5526.278149729309,-0.011406522778557106,44.76113332191134,305.6313805380918
174.50826352998513,17.53301598816475,58.53876426260295,5630.776974043841,0.001775409278381055,44.83121120205171,305.6346901855403
175.00826332998508,17.531549329558025,58.53931599072633,5734.987604480472,0.008602780990465665,44.866184795924156,305.6369225370491
175.50826312998504,17.530098776569293,58.5398616762413,5838.653779670075,0.01200024235852097,44.881350698374035,305.63854831469024
176.008262929985,17.528662148957693,58.540402134591886,5941.619855940271,0.013593661265747757,44.88701583584858,305.6398318486301
176.50826272998495,17.52723815010611,58.54093785070361,6043.799809171192,0.014270299670989082,44.887496811647,305.64092454579617
177.0082625299849,17.52582598842814,58.541469120727356,6145.146966369134,0.014503177203817197,44.885225975908035,305.64191325493977
177.50826232998486,17.52442515031612,58.541996136994726,6245.638296825725,0.014527648919816945,44.8818877689963,305.64283934576036
178.00826212998481,17.52303527689903,58.542519034016344,6345.265018392832,0.014451254825806052,44.87817034807438,305.64371144024915
178.50826192998477,17.52165610139225,58.543037911838894,6444.0252085610755,0.014355581419279638,44.87419231735337,305.6445522233333
179.00826172998472,17.520287417589795,58.543552847870295,6541.921021146119,0.014277680446265081,44.8701901740924,305.6453761277211
179.50826152998468,17.5189290566375,58.54406390556358,6638.956890854109,0.014230841735496517,44.866301360198186,305.64619180899757
180.00826132998463,17.517580873217515,58.54457113957791,6735.138489918986,0.014217251140697707,44.86260781277044,305.64700461452094
180.5082611299846,17.51624273730856,58.54507459885541,6830.472127665621,0.014234349661574287,44.85915988588093,305.64781794466427
181.00826092998454,17.51491452918408,58.545574328488236,6924.96440626756,0.014277939226136306,44.85598989298954,305.64863402009865
181.5082607299845,17.513596136511588,58.54607037079893,7018.621959661943,0.014343535751031389,44.8529660291568,305.6494543732005
182.00826052998445,17.5122874602969,58.54656276304833,7111.449034860841,0.01442655830065522,44.84946205401131,305.650281136319
182.5082603299844,17.510988419184773,58.547051535821424,7203.447217838941,0.014522812399062966,44.84619375784913,305.6511154076805
183.00826012998436,17.50969894132132,58.547536716157545,7294.618416387678,0.014629056559481237,44.84318925250785,305.6519574264934
183.50825992998432,17.50841896083288,58.54801832886709,7384.964891828871,0.014743041057585348,44.840484765715466,305.652807400041
184.00825972998427,17.50714841559745,58.54849639736142,7474.4891422147575,0.014863170842904073,44.83811000763988,305.6536654882312
184.50825952998423,17.505887245759844,58.54897094420608,7563.1938321935095,0.01498829413089642,44.8360909859386,305.6545318158437
185.00825932998418,17.504635394977036,58.5494419906484,7651.0815943964935,0.015117528668288008,44.83455372241766,305.6554065242467
185.50825912998414,17.503392839190045,58.54990954578945,7738.152947749839,0.015249896255309018,44.833608472018255,305.6562897189689
186.0082589299841,17.502159573453383,58.55037361153592,7824.40702569125,0.015324942628378318,44.83153518997862,305.65719151745526
186.50825872998405,17.500935578619625,58.55083419514302,7909.843215156314,0.015242638995135494,44.828629208906285,305.6581403945271
187.008258529984,17.49972083074598,58.55129130567469,7994.460865957609,0.015022889931687988,44.8255740644494,305.6591303651154
187.50825832998396,17.49851467901957,58.55174518567894,8078.22161370357,0.014635718471914515,44.10294899331911,305.65988781340116
188.00825812998391,17.497312203686516,58.552197666478214,8160.7835385135595,0.014401939779665541,42.86909272754842,305.6604258835628
188.50825792998387,17.496107870955218,58.552650806632094,8241.71054170677,0.014278086681192407,41.60932077372815,305.6609504849172
189.00825772998382,17.494897941190512,58.553105997028766,8320.68924345966,0.014202157140483547,40.32472143613282,305.6614734927815
189.50825752998378,17.493679922486304,58.55356416445955,8397.500836715537,0.014136707217970368,39.02130031067897,305.66200556595714
190.00825732998373,17.492452205608778,58.5540259073728,8471.993029728834,0.014061587502925495,37.705579200819415,305.6625562020692
190.5082571299837,17.491213804803678,58.55449159230556,8544.061359488816,0.013965351284146338,36.3833997383135,305.6631332798664
191.00825692998365,17.489964175711226,58.554961421647924,8613.636645913562,0.013840996255753472,35.06017913001504,305.6637431841168
191.5082567299836,17.488703087137875,58.55543548137462,8680.676455067485,0.013683948104676722,33.7410099574054,305.6643909665491
192.00825652998356,17.48743053003831,58.5559137749302,8745.159202579254,0.013491188195218991,32.430700628926196,305.6650805127464
192.5082563299835,17.486146652108147,58.556396247582526,8807.080010315029,0.013260927536233433,31.13378407387687,305.66581469193983
193.00825612998347,17.484851710027012,58.556882804205294,8866.447731997196,0.012992515059801205,29.854506892471377,305.6665954819611
193.50825592998342,17.483546033948272,58.557373322500105,8923.282758369909,0.01268642713877528,28.59680835055015,305.66742407152435
194.00825572998338,17.48223000059409,58.557867663013845,8977.615340834293,0.012344267152034112,27.364295758903694,305.668300945781
194.50825552998333,17.480902815088513,58.55836607071892,9029.385839003662,5.2091799590101475,28.36153120653622,306.01815725005594
195.00825532998329,17.47957295395478,58.558869040888744,9079.656907373419,29.125678034972402,38.8850926856789,309.7720989490777
195.50825512998324,17.478298739928693,58.55937607875357,9132.097008368746,44.67399124570057,43.877034846293355,316.14287003379144
196.0082549299832,17.477104528553074,58.55989307006862,9186.775351142962,52.74861687243042,45.30909539805301,321.89742203574104
196.50825472998315,17.47598715154633,58.56042163120557,9242.828506104148,57.36111567351356,43.56743449374131,322.82297270717487
197.0082545299831,17.474934968931823,58.56096294146768,9299.473300397462,62.28270829861082,41.91432610254893,323.6171895241179
197.50825432998306,17.473938936704666,58.561517677642726,9356.095337372553,66.66248630303201,40.65244349486994,324.98292733408476
198.00825412998302,17.47299304588899,58.562085945847635,9412.256642611457,70.06745803280322,39.681537724042244,326.8758544015812
198.50825392998297,17.472094157094457,58.56266770711019,9467.6807273403,72.53834629318789,38.8411781214787,328.98606856530176
199.00825372998293,17.471240856278143,58.56326278148976,9522.18743138035,74.26363599785728,38.06346832775617,331.13792250426206
199.50825352998288,17.470432440733358,58.56387081328777,9575.651825062707,75.43576207404345,37.32265364767434,333.261182299493
200.00825332998284,17.469668474231323,58.56449129793836,9627.984013809712,76.20908923670794,36.60565391292077,335.33290147065304
200.5082531299828,17.468950259307167,58.565123777483706,9679.129734266111,76.70246652057934,35.901822998928836,337.3441060135665
201.00825292998275,17.468278119302518,58.56576757922477,9729.040242873958,77.01278365429657,35.21115899131764,339.33935425371243
201.5082527299827,17.467651268629485,58.56642189956696,9777.671246042142,77.17765914539703,34.524017950139346,341.312739330563
202.00825252998266,17.46706907174625,58.5670859554044,9824.989717762595,77.23063949549041,33.8321056081883,343.25050926148805
202.5082523299826,17.466530948158642,58.56775898455997,9870.970172836956,77.20047877129892,33.130385984591946,345.1467825413389
203.00825212998257,17.466036326198047,58.568440250844084,9915.592263286222,77.10961793492707,32.41560022318085,347.00044007612394
203.50825192998252,17.465584628595533,58.56912904932269,9958.839226037024,76.97490353710991,31.685489653937374,348.81234180123926
204.00825172998248,17.465175271805133,58.569824709981724,10000.696845331666,76.80883293532511,30.9384589118466,350.58404391917065
204.50825152998243,17.46480767025889,58.57052659960569,10041.15273827887,76.620696252166,30.173407372323222,352.31731761778957
205.0082513299824,17.464481242768194,58.571234122496016,10080.195884281558,76.42070375751258,29.390039461259533,354.0143628067838
205.50825112998234,17.464195454973265,58.57194672403678,10117.817053186835,76.24298543673743,28.593280318538692,355.6817857462795
206.0082509299823,17.463949848204212,58.57266388580221,10154.008565760032,76.08251729499861,27.783024566490596,357.323768297828
206.50825072998225,17.463743987560026,58.573385119441404,10188.762985231018,75.92813570061337,26.95568614342797,358.9411024541045
207.0082505299822,17.463577461414452,58.57410996368906,10222.07298703893,75.7765774258645,26.109535915560425,0.5342033161011103
207.50825032998216,17.463449883111547,58.574837981564386,10253.931336286301,75.62720258921765,25.24419842617423,2.1038891366095016
208.00825012998212,17.46336089102947,58.57556875794653,10284.330857032604,75.48016314663569,24.359922852207195,3.6513565975498894
208.50824992998207,17.463310149490383,58.57630189720487,10313.264416432876,75.3358516201547,23.45724345279288,5.178008096191069
209.00824972998203,17.463297350182764,58.57703702081143,10340.724920887355,75.19472203494584,22.536846655987322,6.685335295577414
209.50824952998198,17.463322213619094,58.577773764946855,10366.70531884381,75.0572329937292,21.59952184680439,8.1748638371043
210.00824932998194,17.463384490403907,58.57851177812018,10391.198607133458,74.92383101325815,20.64614310309428,9.648131008178222
210.5082491299819,17.463483962239877,58.57925071881569,10414.19783962664,74.79494564795043,19.67766144266121,11.10667708941816
211.00824892998185,17.463620442660947,58.57999025317402,10435.696137520168,74.67098718942681,18.69510011650175,12.552041415453559
211.5082487299818,17.463793777501564,58.580730052711566,10455.686701128021,74.55234439776154,17.69955036818109,13.985759774710408
212.00824852998176,17.464003845113982,58.581469792080135,10474.162822943787,74.43938179208004,16.692166819885948,15.409362109581421
212.5082483299817,17.464250556345476,58.58220914686855,10491.117901936197,74.33243657820184,15.674162237955551,16.824370285312995
213.00824812998167,17.464533854285147,58.582947791446536,10506.545458883644,74.2318153977755,14.646801630224864,18.232295918774696
213.50824792998162,17.464853713788013,58.5836853968513,10520.439152729452,74.13779108203065,13.611395701116813,19.634638296763082
214.00824772998158,17.4652101407828,58.58442162871726,10532.792797786511,74.05059957292336,12.569293725427032,21.03288240803007
214.50824752998153,17.465603171367853,58.585156145248426,10543.600381727627,73.97043715307069,11.521875924347047,22.42849710359963
215.0082473299815,17.466032870698484,58.58588859523385,10552.856084235604,73.89745810481318,10.470545444454089,23.82293339355915
215.50824712998144,17.46649933166739,58.586618616105824,10560.554296205137,73.83177289701642,9.416720053636835,25.2176228848418
216.0082469299814,17.467002673378907,58.58734583204101,10566.689639380753,73.77344697530837,8.361823677343954,26.6139763621602
216.50824672998135,17.467543039415915,58.58806985210504,10571.256986320612,73.72250020747934,7.307277903990802,28.013382512363815
217.0082465299813,17.468120595897723,58.5887902684405,10574.251480574916,73.67890701128691,6.254493589753261,29.4172067907288
217.50824632998126,17.468735529326075,58.58950665450005,10575.66855695175,73.6425971676656,5.204862690352676,30.826790425949184
218.00824612998122,17.469388044214966,58.59021856332531,10575.503961788607,73.61345729922935,4.159750440981382,32.24344955890494
218.50824592998117,17.470078360499755,58.59092552587388,10573.753773106948,73.59133297282015,3.1204879955847162,33.66847450867327
219.00824572998113,17.47080671071987,58.59162704939641,10570.41442054876,73.57603136650249,2.088365623791854,35.1031291577771
219.50824552998108,17.471573345975273,58.59232261476971,10565.482866893677,73.5844993709157,1.0671770946721264,36.55011343201883
220.00824532998104,17.472378594184217,58.593011657329185,10558.957801493141,73.64707390825163,0.0654249634097835,38.015527731139166
220.508245129981,17.473222827877006,58.59369356580964,10550.838823909433,73.74383041956851,-0.9180662498113736,39.502345301596435
221.00824492998095,17.474106425383887,58.594367690562244,10541.125589850337,73.86333191174246,-1.885702035568067,41.01176310168123
221.5082447299809,17.47502976857219,58.595033339198864,10529.81797910835,74.00128155180094,-2.8380229540622977,42.54459147359481
222.00824452998086,17.475993235738922,58.59568977469303,10516.916167206458,74.15543846135984,-3.774568402031247,44.101842951977694
222.5082443299808,17.476997193452934,58.59633621417937,10502.420655563003,74.32429319677814,-4.694542229114489,45.684737080436136
223.00824412998077,17.47804198881673,58.596971827561994,10486.332304339645,74.50671001533681,-5.597083760517744,47.29458359244808
223.50824392998072,17.479127941772806,58.59759573602314,10468.652367219624,74.70179501414975,-6.481360748665401,48.93270727113907
224.00824372998068,17.480255337105973,58.59820701058342,10449.38252427731,74.9088388603728,-7.3465961933118775,50.60041618997455
224.50824352998063,17.48142441598202,58.598804670800924,10428.524912043125,75.12728978130576,-8.192072382298495,52.29899094979612
225.0082433299806,17.4826353669587,58.59938768365681,10406.082151009146,75.35674065927506,-9.01712752168059,54.02968149578626
225.50824312998054,17.483888316440794,58.59995496266443,10382.057371304307,75.59692407560357,-9.821149951280038,55.793706174165024
226.0082429299805,17.485183318564356,58.60050536723498,10356.454237221658,75.84771268910293,-10.603571398339795,57.59225136467605
226.50824272998045,17.486520344503365,58.60103770233526,10329.276971057528,76.10912365399783,-11.363859615700367,59.42647128537305
227.0082425299804,17.487899271197357,58.60155071847573,10300.530376830322,76.38132639531248,-12.101510428144067,61.29748791552067
227.50824232998036,17.489319869505536,58.60204311206824,10270.219864068586,76.66465343768385,-12.816039112139352,63.206391064327704
228.00824212998032,17.490781791824784,58.602513525466684,10238.35138254996,76.96276272474496,-13.511590020466897,65.1553513610249
228.50824192998027,17.49228456394188,58.602960514167776,10204.928544367736,77.32159802676651,-14.220536612271145,67.15334139320717
229.00824172998023,17.493827539318506,58.60338253589018,10169.946828900549,77.7558244963573,-14.94649813753324,69.20451538778167
229.50824152998018,17.495409779148396,58.60377812427741,10133.389959761802,78.24341550193068,-15.684656006794603,71.30770960207587
230.00824132998014,17.497030342551398,58.60414536466283,10095.247416385218,78.76776173602057,-16.431839373230762,73.46021622786236
230.5082411299801,17.49868799544547,58.604482264011004,10055.504923874501,79.31476594553644,-17.183368440854384,75.67030211699381
231.00824092998005,17.50038116104382,58.60478683370338,10014.143344350065,79.8721521555971,-17.93653809165267,77.94279541972632
