Time,Longitude,Latitude,Altitude,Roll (deg),Pitch (deg),Yaw (deg)
1.0083329300000023,17.999963073690964,58.00297530149936,6989.427050324598,30.640302121059506,-7.556425175189608,356.448922805915
1.5083327299999973,17.999889126310862,58.004431227971594,6974.826582162881,21.27545594286285,-9.969933545891958,355.5100945427994
2.0083325299999926,17.99979936652296,58.005871628284176,6956.6610702963535,15.208032340692466,0.19891373936449336,359.1874264834179
2.508332330000001,17.99975341403836,58.00730837626663,6946.735113355664,10.622944743748578,5.2309561907838225,0.6053825818448302
3.008332130000009,17.999741566082765,58.008735929176176,6948.347372940463,-15.300829044587552,8.833898336494894,0.0657423601604728
3.5083319300000175,17.999697667645666,58.01014891149258,6959.757729731987,-15.18982886350881,13.02955730372213,357.9044035543891
4.008331730000026,17.999604523064807,58.011541274482255,6980.921267767275,-10.954231986839437,16.540076568657508,356.6163423924442
4.508331530000034,17.99947472392979,58.01290579541874,7011.956970429155,-7.658783244330025,20.505969671856,355.8107711711249
5.0083313300000425,17.999323942858123,58.01424269857479,7050.511722749708,-5.008291787667878,12.749979194769312,356.6825882177107
5.508331130000051,17.999172631129063,58.01558048866459,7086.463649222499,-3.406175749124092,8.145309939834545,357.01777486340654
6.008330930000059,17.999015237629354,58.01691707486298,7119.134783150509,-41.55470474826506,18.02227748194678,353.1634993305972
6.5083307300000675,17.998797538468523,58.018237320355894,7155.158105945537,-43.56910035578401,13.760643451063897,357.8572080424165
7.008330530000076,17.998576907875265,58.019560820432076,7189.953753881997,-32.192796281415305,20.078022781214624,351.96226678804123
7.508330330000084,17.99830229862342,58.02087244725098,7228.219225139693,-21.967430965749514,13.176263397390711,354.9326450817503
8.008330130000092,17.998011257662824,58.022182327877054,7266.276306426054,-38.719124402951564,20.016665934436883,350.1154559607776
8.508329930000047,17.997643756351227,58.02346905708253,7308.7576339915395,-31.171624661777876,24.58293681436749,345.95999419715235
9.008329730000002,17.997189417971843,58.024711463790325,7358.414889710775,-21.19247868189291,28.43918242115407,344.06260718791674
9.508329529999957,17.996680215782913,58.02590086383432,7416.137771396515,-13.932452455983695,32.84949273273905,343.0349979089718
10.008329329999912,17.996153452891953,58.02703791870726,7481.388984185207,13.502300490036282,36.695092220037075,344.3381082463507
10.508329129999867,17.995684163352824,58.02812188043987,7554.271727551881,17.29586045072291,41.72408282967178,348.3127604278517
11.008328929999822,17.995292347880884,58.02915047332334,7634.404518051526,12.991217256910645,42.10849776375132,349.61161605380545
11.508328729999777,17.994949176502388,58.03012661053874,7720.33760785609,-11.682674914846295,47.93920163668493,349.5096372377795
12.008328529999732,17.99461127773867,58.0310535596794,7810.736726586539,-13.231668589221336,41.997537195400035,350.9111905682226
12.508328329999687,17.994267986333124,58.031964836660435,7901.3094639902565,-34.1657141301352,47.27635401489937,345.7209599199873
13.008328129999642,17.99387753328838,58.032833777373526,7994.105576910953,-52.50499759193435,52.32918971882888,336.7752131106567
13.508327929999597,17.993422354959197,58.03365871856775,8088.9259910468645,-38.74169499869219,46.404459415408034,344.84384752498164
14.008327729999552,17.99296498809546,58.03448861916333,8182.258991322828,-26.943066357159214,39.739510555726,349.92945589835693
14.508327529999507,17.992538391880913,58.035353167541494,8270.665605408543,-20.31336110735112,34.78855723773344,351.8189996497253
15.008327329999462,17.992141436674164,58.03625373081037,8353.188845423878,-16.749907561220013,38.642001764129034,349.38567258272997
15.508327129999417,17.99175025091642,58.03716197374839,8433.466727980238,-13.78868512107709,43.72083493815733,346.933108508547
16.008326929999374,17.991356007792778,58.03805173080281,8514.340788869924,-9.594276969468787,38.589153667598744,347.64872410378223
16.50832672999933,17.990961546724147,58.03893585558518,8594.234644780541,-7.561564753711045,42.86796570087692,346.61526353956106
17.008326529999284,17.990567554639828,58.03980953838668,8674.020031024325,-5.226105449055428,36.326491706335325,347.3017409467869
17.50832632999924,17.99017090439874,58.040695568484864,8751.027894719678,-3.890470310333632,29.231285688614985,347.8506179982971
18.008326129999194,17.98976932178826,58.0416115852896,8821.595976665845,-3.179030041858883,23.679929029045947,348.1222722913719
18.50832592999915,17.989364061098172,58.042548430051234,8885.630208120212,-28.031483546528506,27.312187010585337,346.52410928797906
19.008325729999104,17.988959180583556,58.04348929909993,8946.934670555502,-29.0623285380732,23.201321147472804,351.10381356230005
19.50832552999906,17.988583407069804,58.044454278505356,9002.651904950773,-19.79288086353952,17.440748706907726,353.7909908770126
20.008325329999014,17.98824754447538,58.04544792168055,9049.82890664202,-15.603838342269734,11.85535431827569,355.30063365488473
20.50832512999897,17.98794715830586,58.04646389508219,9088.100632889013,-13.398890436334034,17.755891980036516,353.3634147983266
21.008324929998924,17.987651284658995,58.0474836289448,9124.234869304848,-10.296494193869291,21.030121498371717,351.8739922481572
21.50832472999888,17.987347099687316,58.04849510170716,9161.28083876751,-28.065016271543687,24.26361904171494,349.1771811586719
22.008324529998834,17.98702026410038,58.04949548351108,9199.749471500276,-26.134627009674105,24.319978493903957,349.11489376812614
22.50832432999879,17.986679271367308,58.05049407489249,9238.210460456783,-18.173250796894237,16.27529210090719,352.16808246686935
23.008324129998744,17.98634559501667,58.05150561379445,9273.170074268399,3.289229384760475,20.60564140703332,352.2324711988354
23.5083239299987,17.98602673625233,58.05252017815179,9308.078101747273,28.596474037146024,30.6024282769241,354.68664150276294
24.008323729998654,17.98577662210732,58.053512130361085,9348.524059124968,27.349452607141764,36.08808143484159,359.396758496479
24.50832352999861,17.985602607274267,58.05447109219396,9394.840692640355,17.80956365531246,33.60119128299451,358.9002931735015
25.008323329998564,17.98546158300981,58.055412327008796,9443.79662008549,11.154837214826493,25.406322558294335,356.13566481396344
25.50832312999852,17.985326367979297,58.05635044907825,9491.854290215806,-9.3296125155435,17.360870879789037,354.967438078159
26.008322929998474,17.985194436468753,58.057302396532485,9535.019139014134,7.0939456200151305,21.17884938189127,356.2069021158284
26.50832272999843,17.98507333627116,58.058256675464655,9577.39874364396,11.781223058791355,33.98662492224331,358.5134713711692
27.008322529998384,17.984976087558593,58.05918659762138,9623.69335714396,7.715367025229329,33.34525451122404,358.6255397816444
27.50832232999834,17.984891786534092,58.06009276414562,9673.125392998445,-12.312717125511446,35.0132162099097,357.07344631350196
28.008322129998295,17.98480073514718,58.060979968138014,9724.772395516125,-15.887934298646021,34.70790432703074,357.25470665433556
28.50832192999825,17.98470260903516,58.06186053660928,9776.683172822866,-10.824306108269651,26.344664681243515,358.8531718773604
29.008321729998205,17.984607515283923,58.06274824906278,9826.540174857259,-8.539188286596355,28.6004385760183,358.04129122167524
29.50832152999816,17.984510996434516,58.063632546174674,9875.94450621071,-6.1450477339757255,32.32031902775826,356.8561108600069
30.008321329998115,17.984411989070935,58.0645100707076,9925.288596275059,-4.198021004814617,24.306398950496963,357.4306968554253
30.50832112999807,17.98431226545976,58.06538689385965,9972.930960910544,-20.696997880839497,25.719617454232157,355.9452385159044
31.008320929998025,17.984206364385372,58.066262774643704,10019.524747287629,-22.043445452180418,29.33026557171036,355.0935610681329
31.50832072999798,17.98409543457816,58.06714151884685,10064.986728514186,1.1059686977825414,31.59363034048876,355.81590071686566
32.00832052999794,17.98398945151477,58.06801115224859,10111.312275226664,8.585950835602041,31.98742276196974,355.1253691248388
32.50832032999789,17.98389052296601,58.06886401484326,10159.330291294635,-10.027887197772115,33.30602963078128,354.4667560881507
33.00832012999785,17.983786399515232,58.06970178201067,10208.440926971198,-15.132984889041236,34.553454167446766,355.164264880108
33.5083199299978,17.98367542824695,58.07053289534639,10257.408436390158,-9.665008138322248,28.527292971028213,356.65669624173427
34.00831972999776,17.98356300764227,58.07136438659761,10304.999938873128,-6.4875546525201475,24.361104493917622,357.05959507369806
34.50831952999771,17.983452025292895,58.07220096802073,10350.049719947649,-4.701621929222947,25.77093421047468,356.76324746931584
35.00831932999767,17.98334083598556,58.073035492317736,10394.003395172203,-3.2842507177187774,30.944116503873733,356.028067896159
35.50831912999762,17.983228663263986,58.073866439371855,10437.665922590786,-2.1169021076225394,23.566832172862902,356.2811071161815
36.00831892999758,17.98311610844885,58.07470549800599,10478.951774716508,-1.4764806948931952,15.70244341699934,356.4681720281534
36.508318729997534,17.983003651833105,58.07555849630224,10515.352388501466,-1.1521278237931019,9.463060932285163,356.54688566591
37.00831852999749,17.982891765435035,58.07642423433176,10545.194534118024,-0.977868597951787,4.329380642801408,356.5823419534722
37.508318329997444,17.982780716209952,58.07729880734418,10568.125047323969,-0.8466281324081911,-0.26178579933768337,356.5983891805016
38.0083181299974,17.98267042289557,58.0781807962568,10584.154922967356,-0.7376133332767328,-4.621995761675952,356.60519855083834
38.508317929997354,17.982560839837344,58.07906885172568,10593.265851480372,-0.645045815236746,-8.85035008115415,356.60809909098236
39.00831772999731,17.982452120644496,58.07996014241328,10595.434965063707,-0.5649047156715219,-12.986997986713936,356.6093651712202
39.508317529997264,17.98234459760267,58.08085045971959,10590.686584061319,-0.4945477541942228,-17.019553267296015,356.60965269083454
40.00831732999722,17.98223861826508,58.081735608306545,10579.082157394356,-0.43231491261845434,-20.997975526686474,356.6095688222811
40.508317129997174,17.98213464177552,58.082612657185045,10561.397601581419,-11.573681137514159,-16.893579806050194,355.735445250092
41.00831692999713,17.98202985148492,58.08348874753923,10540.463041428906,-15.841072644974341,-12.283297498652166,355.67681001459874
41.508316729997084,17.98192440653647,58.08436953145274,10516.934178861407,-10.45957769981554,-18.767899538446702,357.59667266024826
42.00831652999704,17.981824354428053,58.08525030022431,10489.304266142768,-7.071065007072393,-25.493544080824684,358.6754530253094
42.508316329996994,17.981733912136974,58.08612283426351,10456.082712376769,-18.211586704940675,-31.082507916723173,359.04917567270047
43.00831612999695,17.981663939969383,58.08698165367954,10416.340520424557,-18.279142149496053,-35.31028569676364,1.8334614328503838
43.508315929996904,17.981619120647448,58.08782253991348,10369.939189229957,-11.775593101948774,-34.14074002352267,1.5050721829634313
44.00831572999686,17.981587322259095,58.08865284977335,10318.209062736743,-8.7903676446667,-37.049820274721604,1.717787559239369
44.508315529996814,17.981563527881242,58.08947480847165,10261.967511294508,-22.045322027436594,-34.45229245227453,359.63109527577103
45.00831532999677,17.981539535401108,58.09029911198015,10203.044471285784,-23.32530651828742,-31.100216155592506,358.8654927459726
45.508315129996724,17.981515570749746,58.09112941129194,10141.537687446105,-16.44726102147827,-38.274626259025204,2.0463882040013814
46.00831492999668,17.98150326399807,58.09195217686409,10075.594105497614,-12.432352162096818,-44.91927481038943,4.019781874816834
46.508314729996634,17.98150589726989,58.0927569752205,10004.201028783069,-9.014396471771224,-37.88295012326652,1.7871997446232193
47.00831452999659,17.981509095875847,58.09357416875971,9930.91937686085,-6.734736021750519,-33.95856692732159,0.5406447167369778
47.508314329996544,17.98151020503579,58.09440815442701,9856.491508054225,-5.377317563767195,-42.102035895434604,1.3608199765902622
48.0083141299965,17.98151491658392,58.09523817530511,9778.04567482033,12.892654050147684,-38.604222019558605,2.6485042998860733
48.508313929996454,17.981534202196258,58.09608189136893,9698.260177559523,13.964481990316157,-37.4258795462467,1.832651416262959
49.00831372999641,17.981563448668386,58.096939732196965,9617.310648498576,9.781624026790562,-45.12103916714255,359.5399653841487
49.508313529996364,17.981588515591838,58.097793797284346,9532.583689497194,6.862454769359846,-44.88874592645488,359.7621023252248
50.00831332999632,17.981610990938506,58.09864839970403,9444.309963325766,5.064550995324638,-45.013824579699325,359.9510763726699
50.508313129996274,17.981633871149327,58.09951376837152,9353.838605858795,3.4834809996886738,-35.390469010028376,1.0544380463155174
51.00831292999623,17.981663384203642,58.100416016066944,9265.137683149866,2.6079264422575017,-39.12979727483561,0.9514198619135575
51.508312729996184,17.981695128313255,58.1013343996753,9175.332038595941,1.9364773711649437,-45.123298214032324,0.6750598869402628
52.00831252999614,17.981725950901776,58.10225074593427,9081.764022857193,1.4453465084835428,-44.87046310519334,0.762863871441617
52.508312329996095,17.981757152739505,58.10317595166856,8986.132514094643,1.001534305628251,-35.06723161936304,1.0895063450815117
53.00831212999605,17.98179224884913,58.10414803899817,8894.05790274658,0.7001794204732552,-29.46667713600302,1.2285953812051444
53.508311929996005,17.981825504878817,58.105177839484135,8808.762086393666,-19.69486158257168,-26.590292881320643,0.09125260373959575
54.00831172999596,17.981830464683654,58.10624892372035,8727.711358634913,-21.156187239292507,-33.67127646475515,2.5638268604690753
54.508311529995915,17.981837232970744,58.107330426922736,8644.406704109217,-16.026408184708703,-34.975616519715196,2.283715121700698
55.00831132999587,17.98184221230423,58.10842724027611,8559.829984781394,-11.425180463527001,-26.59575218931198,359.24843824364183
55.508311129995825,17.98182575540657,58.109560988882876,8478.457935799519,-8.538491681203514,-34.13992938610631,0.38794595468192783
56.00831092999578,17.981807670624466,58.110705134656214,8395.36675783057,-6.160595169647938,-33.34194544239083,0.05569904301825493
56.508310729995735,17.98179058681008,58.111854328089294,8309.859936501969,-4.647361613339024,-38.09067917492876,0.4222415835778162
57.00831052999569,17.981779036295364,58.11298916124969,8219.269742504579,-3.5427874791816754,-41.098945979947786,0.5363495785670482
57.508310329995645,17.981773368466317,58.11410026076939,8122.642232474014,-2.7419281559468014,-43.55604666786403,0.5665675600973352
58.0083101299956,17.981770957821386,58.11519765631547,8021.871127355594,-1.9811106794668634,-36.41523074976774,0.0598805981390527
58.508309929995555,17.981767680821577,58.116314060350646,7921.203153544352,-1.523674003395174,-42.65508574491608,0.22782513141670785
59.00830972999551,17.981765192774354,58.11743329197091,7818.22971338861,-1.0550983063544168,-32.792465576207796,359.8995320771255
59.508309529995465,17.98176016966206,58.11860471514174,7720.963873853713,-0.7295052466527474,-27.625969455194806,359.77018145516666
60.00830932999542,17.9817421987777,58.119835695482,7633.219910072744,-22.734452335845543,-24.231423816459568,358.47872943383345
60.508309129995375,17.98168139235463,58.12110569393312,7551.460906110514,-20.797121194504086,-31.380301911053134,1.271213084299466
61.00830892999533,17.981634458856185,58.12237129915354,7466.285196084694,-15.734461142550442,-35.76293110081647,2.3500114745586793
61.508308729995285,17.98160059308999,58.12362671367802,7377.237170335848,-33.78351283747126,-26.92861992917798,356.833381884466
62.00830852999524,17.981491974091714,58.12491478392305,7292.721783014525,-10.364578960442316,-22.57677600146421,354.0983626572296
62.508308329995195,17.981334644653906,58.126247561522355,7216.573966854627,19.735412103677326,-18.5460539466301,355.5312136957357
63.00830812999515,17.98120417365872,58.127620062276,7147.971698784792,18.992210899403027,-25.583823541792555,353.63422539611406
63.508307929995105,17.98107225711324,58.129005208055496,7080.766608820761,-2.730496782356244,-20.269951486777934,355.34912760219356
64.00830772999507,17.980929516931944,58.13041200771445,7017.200668007112,-1.5754719846397276,-25.168880457186624,356.0370155533122
64.50830752999502,17.98078619608152,58.131824549683024,6952.039293684635,22.352920595229094,-16.298133628201416,358.3116859143758
65.00830732999498,17.980682762550327,58.13326171067641,6891.663585755611,18.904413520501773,-22.81569079728686,355.78542728705384
65.50830712999493,17.98058918328351,58.134704366057285,6830.662704193926,36.348303308252376,-14.962282694095776,0.7767114008615277
66.00830692999489,17.980606915871313,58.13617265476256,6775.9213236704445,50.9887069251409,-11.40463375501675,5.3410419355032355
66.50830672999484,17.980786396053386,58.137657133485085,6727.391507246993,61.88004772210933,-12.450019650530386,5.661551243945345
67.0083065299948,17.98105723973592,58.13914492921524,6680.650558799645,47.224453402782565,-16.282350391879888,0.9080940198518116
67.50830632999475,17.981294917389718,58.140625270012094,6630.996956234515,34.40584119212123,-19.477677417992442,359.10605148009876
68.00830612999471,17.981504778981172,58.14210135065096,6579.2250105211,24.55806840410867,-10.318400582207005,5.344211762403344
68.50830592999466,17.981775771408174,58.14359341445288,6534.0706586253855,17.720975261447094,-17.135675700354753,3.3575067967264633
69.00830572999462,17.98205519874722,58.145087903907516,6489.787006806904,12.555557783773166,-7.562005952418051,6.3567941266299455
69.50830552999457,17.98238199950395,58.146596578200985,6456.577547743473,8.713085725387607,-1.9884770811502679,7.677850187413807
70.00830532999453,17.982744943006036,58.148111702244954,6434.121850588444,6.030420636933898,-9.757859464102868,6.782146936383287
70.50830512999448,17.98310535913786,58.149622291966516,6408.529496027014,4.298978451277821,-13.937968295285474,6.467984117525173
71.00830492999444,17.983464445998752,58.15112807879906,6378.358149696905,19.44291741736791,-3.544695575505771,8.964337553773328
71.50830472999439,17.983871007796537,58.1526422859069,6354.3058741492605,14.844355030765616,-10.389281854193484,6.896173433261881
72.00830452999435,17.98428769766327,58.15415938182358,6330.773174880311,10.345384220569548,-0.6892338227816673,9.19429047546135
72.5083043299943,17.984744432685787,58.155679674698405,6318.4445535536,7.109097101392485,4.957785334259883,10.16686296336692
73.00830412999426,17.985229648322722,58.15719600588549,6316.906246357763,4.774260047928842,-2.8136622158823728,9.388150748306675
73.50830392999421,17.98571950149411,58.15871279924529,6316.078301965875,3.2847745939479283,6.959942404005974,10.072600900304385
74.00830372999417,17.98621818034759,58.16021736321363,6326.295950059185,2.236991776355717,12.559403453733122,10.349438030484501
74.50830352999412,17.986705828367594,58.161694488221784,6350.451865715164,-21.94075913945661,16.69033457875404,9.115082689162167
75.00830332999408,17.987127261841664,58.16314750170806,6385.541451209414,-1.8313923050718062,20.51285227040146,7.46477914679536
75.50830312999403,17.987517130424575,58.16456006626736,6431.746020632565,1.8497826224997065,25.253303839931966,7.85973319599072
76.00830292999399,17.987908130364467,58.16592029787568,6488.836786563054,25.136175962185774,28.845164172095174,9.59939076925861
76.50830272999394,17.988357991564673,58.16721613361015,6555.722543944163,6.8871365558393824,32.782898628975914,12.071329116847243
77.0083025299939,17.988827067746985,58.168443516844405,6632.262536792851,1.7542120985222225,37.60184314564077,12.277417143942618
77.50830232999385,17.98928308027377,58.16961810010756,6715.474850805518,0.7986591266274331,29.84727860198007,11.896248387199112
78.00830212999381,17.98973655388418,58.170781269183465,6798.267229446074,0.3525406167001171,39.185100723565654,11.89561232337277
78.50830192999376,17.990176795351097,58.17190704907807,6885.140321620265,0.10387432041502506,31.96346132578896,11.79632086841331
79.00830172999372,17.990620621614443,58.173040314166606,6969.185421338824,-0.022859467779277005,27.682905522282372,11.760739463458586
79.50830152999367,17.99107235463813,58.174197717171886,7046.728655975828,11.20077199098985,24.689682118778688,11.39749341617097
80.00830132999363,17.99152573384505,58.175367785194304,7119.793703437883,8.244971382395688,35.166206156801664,13.17583016223831
80.50830112999358,17.99198475780209,58.176509037618956,7196.174181446734,4.965135540046931,28.485864152084712,12.165080033312002
81.00830092999354,17.992446379989328,58.177653672288294,7269.702930964673,3.0920265016502024,23.6816519022061,11.710985575525944
81.5083007299935,17.992910297410376,58.17880951205459,7339.015893314633,2.2277982237579512,34.127961138546205,12.248612328009589
82.00830052999345,17.9933555382347,58.1799270493669,7413.79957424191,-21.01473633713307,39.918748434504444,10.832899387108805
82.5083003299934,17.993739110010864,58.180998680129406,7494.733054339243,-9.447842576374624,43.74373767170369,8.151017666001087
83.00830012999336,17.994076892529325,58.18201940972571,7581.049042439318,-1.9707961456184604,43.67539631997901,8.383865916794326
83.50829992999331,17.99439287253453,58.18299385192998,7671.395614190948,-0.6059676903035359,44.16733955717699,8.850377584620336
84.00829972999327,17.994698371154257,58.183943231133476,7763.323987352899,0.1403207276631265,37.332032574368725,9.146521110051617
84.50829952999322,17.995003543024374,58.18489539306422,7853.4267132975165,0.4693979140351875,44.910384585225586,9.364045425668195
85.00829932999318,17.995303178730264,58.18583052512783,7944.011942426036,0.49349783951930554,37.50072379785394,9.385269970764812
85.50829912999313,17.995602533530246,58.18676589033934,8032.5031097082765,0.5095921546902278,44.92584438058341,9.532815441954375
86.00829892999309,17.99589650656932,58.18768348361763,8121.255892224124,0.40155826355253,37.85973306387353,9.5032858119687
86.50829872999304,17.996193272897468,58.18861062861137,8206.822812107761,0.3363811738727077,31.871854548798595,9.479200951859081
87.008298529993,17.996498688168735,58.189566847861705,8285.929885882795,0.2905714238347482,27.383871239281138,9.467501073600408
87.50829832999295,17.99681128594724,58.19054717065829,8358.621491976866,0.2653569342138279,36.369159222904145,9.532954544350046
88.00829812999291,17.9971241624366,58.191512716396794,8432.25463236014,21.526444901089423,45.918698928847746,11.773806923783658
88.50829792999286,17.99746309603747,58.19242856076255,8510.410570316533,20.96118377345765,40.79183498517009,9.765727319266077
89.00829772999282,17.99781849721034,58.193322472648035,8589.560426382075,39.42737086314245,44.17976565972492,14.834396449371573
89.50829752999277,17.998229633812876,58.194173862503305,8671.328990606278,32.837902415073806,50.73303126379597,23.380333122117143
90.00829732999273,17.99869517663714,58.19495879816712,8757.222774796523,18.18585183608757,47.443434161199086,21.64945164773511
90.50829712999268,17.999172100359257,58.195727217757366,8843.2204241881,10.279987115083577,39.16028520424492,18.09070683627595
91.00829692999264,17.9996555684095,58.196514874610415,8925.34981093071,6.056406033555421,32.29647807117091,16.702600945881915
91.5082967299926,18.000147920534985,58.197337395923064,9001.109183144314,23.663049524074637,37.43437896229747,19.061657121064368
92.00829652999255,18.000652292300956,58.19815797668091,9075.36425933667,20.090349881540714,39.53078947652254,19.362761173894263
92.5082963299925,18.00116441017864,58.19897434769244,9148.622451959985,12.729038632278028,31.67782504190498,16.3991360282376
93.00829612999246,18.001676162864655,58.19980367860789,9218.31820539793,9.407382478888138,35.61925686696328,17.295236604173613
93.50829592999241,18.00218828072396,58.20063327797908,9286.383622310097,6.609604913383562,32.48075977603377,17.06861207184591
94.00829572999237,18.002697946080072,58.201461140576335,9352.94984530601,-13.507423236329137,35.733619809361656,15.881907154677913
94.50829552999232,18.003191912446308,58.20228046736376,9419.494381260396,-14.042879366662097,38.83420061668923,16.002735423991698
95.00829532999228,18.0036742441246,58.20309557029958,9485.693991129105,-8.831829697353486,31.593963276627214,17.96600858728737
95.50829512999223,18.004163272196624,58.20391786518037,9549.050600633982,-5.873698776859315,26.576725444003962,18.657391943919755
96.00829492999219,18.004669237048038,58.20475572939614,9607.293329028404,-4.264907812365383,20.176140042651685,19.1876019843476
96.50829472999214,18.005192691577104,58.20560721087089,9658.8985201538,-17.786582391840156,14.785196153884092,19.60676228576432
97.0082945299921,18.00574212319561,58.20646768376007,9703.54628088052,-12.760638786414951,20.090045623064878,18.906132469487634
97.50829432999205,18.006296196240413,58.20733143474284,9745.391082861588,-8.522061726496126,24.144800246283,17.926203912351607
98.00829412999201,18.006847988329383,58.20819686340198,9785.805329786137,-5.4044456193021295,16.495885038106756,19.036749697932553
98.50829392999196,18.00740215568505,58.209066068752016,9823.546903885166,-20.801736118894425,18.384321173520647,17.784006159039137
99.00829372999192,18.0079538077473,58.20993948510417,9859.761605824615,-21.33391880772113,21.70814285308918,17.321072836235828
99.50829352999187,18.00850414868286,58.210817779890576,9894.514169633523,-13.800115854705053,14.274724986871329,19.89906990587861
100.00829332999183,18.009067124637014,58.21170261607337,9925.398111526689,-9.506138450923771,7.287956909662178,21.251469577327768
100.50829312999178,18.009651895422607,58.21259563334345,9949.713431004346,-7.33808302593686,1.4760730278848122,21.88313288974957
101.00829292999174,18.01025777509304,58.213494309865276,9965.990489206017,-6.209778979972499,-3.713046878899114,22.251455749539264
101.5082927299917,18.010879531478675,58.21439364773642,9973.885385120855,-5.4582936765796255,-8.614999336888424,22.509757428853934
102.00829252999165,18.011512633333925,58.215290018614965,9973.436486228899,-4.88147203842471,-13.362464291384818,22.709864372377975
102.5082923299916,18.012152812191847,58.21617979390726,9964.71210111503,-4.406869776249776,-18.010392715178302,22.8764546052655
103.00829212999156,18.0127961784578,58.21706076940565,9947.47451247148,7.393918983570818,-13.081239463033294,23.15885960005759
103.50829192999151,18.01344729033487,58.21794317281111,9926.742291462779,6.306053872230296,-8.412504650129657,22.8304918197146
104.00829172999147,18.014107600893464,58.21883075458079,9904.74485168893,3.857762561434301,-16.028431934280047,21.77324614717836
104.50829152999142,18.014769674326057,58.21972201371347,9878.43432598385,18.381276794962066,-14.058098213982802,22.84721565744123
105.00829132999138,18.015449408777066,58.220618350888685,9850.586916834372,19.311596937896553,-11.104894493897396,23.014005840838827
105.50829112999133,18.016147763876244,58.22152150795676,9821.987215303427,29.750619248737156,-9.076462329817529,24.76791827766838
106.00829092999129,18.016885997408835,58.22242829509398,9794.241255580231,28.340234953310908,-8.77719865380268,24.662171736268533
106.50829072999124,18.017654587263216,58.223337598236746,9766.972670867855,19.840101898693128,-16.580038774858302,21.378327335859897
107.0082905299912,18.018418017809076,58.22424964962235,9736.515921454025,15.049668663050836,-23.805355115393642,19.34878898941682
107.50829032999115,18.019153919112288,58.225154517997645,9700.189957965786,12.847675973925943,-29.668969392087725,18.163199110396643
108.00829012999111,18.019852128745587,58.22604292175624,9656.799969895988,11.721432959283186,-34.77389487145032,17.281088141401515
108.50828992999107,18.020511734443957,58.226910510750926,9606.331491669112,10.919360387928709,-39.45104274836977,16.556849841761696
109.00828972999102,18.021133188439926,58.227754791820516,9548.779817835635,10.294151182306758,-43.890659917740315,15.903120571851773
109.50828952999098,18.021713478704,58.22857315610678,9483.637332845503,26.25523563572432,-38.430611150384586,19.384943330021272
110.00828932999093,18.02229210148525,58.22938918617487,9414.50369917752,41.272793610978155,-27.42574041722496,27.394917249650398
110.50828912999089,18.022955130179994,58.23021369801309,9346.92530087472,36.60912865203513,-28.529356131363684,26.146560719654588
111.00828892999084,18.023675888776204,58.231046961953034,9279.739086208641,26.53903308023641,-35.99938861466455,20.959243217371952
111.5082887299908,18.024388722959593,58.23188262767915,9209.12062241199,20.550360621102545,-42.59159025716117,17.769390643958943
112.00828852999075,18.025058861468573,58.23270251169498,9133.022968492753,16.958054928731627,-45.00210990715817,17.31988736433417
112.5082883299907,18.025693569351684,58.23350641068045,9052.061880523888,13.962751548937884,-44.91890033305537,18.186713973894616
113.00828812999066,18.026312274279945,58.23430496940335,8967.40753932496,11.356880860593273,-44.951874645409205,18.961963308746217
113.50828792999062,18.026931137140235,58.23510896747635,8880.354265159687,8.327889104201077,-35.091497697541385,21.7940394387742
114.00828772999057,18.02758527146728,58.235943862055144,8795.062043701128,6.426515480277018,-37.875299265137116,21.87639102861438
114.50828752999053,18.02826231314649,58.236800431491446,8710.08049738927,4.5826841453814655,-32.47613498871094,22.69825935413288
115.00828732999048,18.028979317096013,58.23769531051958,8628.391194359709,3.214344778724379,-24.777124032477627,23.495838981190516
115.50828712999044,18.029748718678217,58.23863477889358,8553.20481995734,14.478244870335995,-20.53177428689806,24.71730376704393
116.00828692999039,18.030582843373182,58.239606153218986,8484.600878759937,13.129726217305768,-27.517099642272335,23.431690629913874
116.50828672999035,18.031436252575215,58.24058854966575,8416.104132499078,10.407441289834564,-35.152187377726314,22.06004428226634
117.0082865299903,18.03227892974057,58.241567662429226,8344.045511903001,7.708954541273563,-26.01441007344437,24.135146816389653
117.50828632999026,18.03315687896319,58.24257230987318,8275.358190639907,5.534705873508459,-18.111993384826548,25.497365368237343
118.00828612999021,18.034080258021618,58.2436083769099,8213.067649255192,4.0103373059937875,-25.46197714961454,24.987341647839347
118.50828592999017,18.035019674489202,58.244655143721275,8150.786118659949,22.244709695440292,-18.978266534180424,27.376556150639253
119.00828572999012,18.036028211015754,58.24571599245479,8093.062880883345,18.935934698629406,-13.480350488096947,30.001105322023225
119.50828552999008,18.037125324072534,58.2467888653416,8043.746616522209,12.85899593840113,-9.595389784239453,31.22232061070598
120.00828532999003,18.038290016278548,58.24787260580357,8003.373966375045,8.484397247705349,-5.697627039278631,31.785839213897592
120.50828512998999,18.039505202240694,58.248966841317355,7972.234124692467,5.435645037038754,-1.7931443587866602,32.000170614644034
121.00828492998994,18.040754704943264,58.25006846047487,7950.561121257511,3.373263224736015,2.119285112122958,32.03933202844983
121.5082847299899,18.04202285161069,58.25117182863814,7938.496042441616,2.018316591400073,6.110423500463082,32.001612738768586
122.00828452998985,18.04330465675569,58.25227201818915,7935.173679103509,22.378216555323267,8.995409097267547,33.0134460472827
122.5082843299898,18.04463440074327,58.25334964390747,7940.946422192762,12.463503905488473,12.372649790353323,35.06874338705408
123.00828412998976,18.04599495173831,58.2544051754889,7954.776860630214,4.518382194839745,5.315227455066425,34.56930427816002
123.50828392998972,18.04736335328643,58.255461222900365,7969.113288847134,2.8332736409580432,12.659910191150784,34.87441501103329
124.00828372998967,18.048729586688314,58.25650871202037,7989.376388550658,1.8189954688713794,19.13337662182431,35.06463498400214
124.50828352998963,18.05008435152161,58.25753564201503,8017.860013596878,22.440154642776985,22.334849049550655,36.29638673527551
125.00828332998958,18.0514523247984,58.25852754244941,8053.121428179771,21.717959886982893,15.465403088779928,34.03336200592796
125.50828312998954,18.052825235081436,58.259504815952795,8089.760488480577,17.218688714683633,22.060614151776637,37.15953631556065
126.00828292998949,18.054205229989545,58.26046431052505,8129.19595139106,48.1926349723119,17.558224702256854,35.882239158713595
126.50828272998945,18.05559737029754,58.26142027842938,8167.3899685391225,68.05281049157288,17.359691070690282,37.53228525354171
127.0082825299894,18.057032708027492,58.262354095221035,8205.159335513834,47.70912722907412,18.772906580652656,40.974923561795244
127.50828232998936,18.058516016977062,58.2632454964877,8245.855743730062,7.945559759282907,25.889564953763625,45.10300018159592
128.0082821299893,18.059991923780164,58.2641044904369,8292.253737796418,9.590442319932961,31.486726835069657,45.00384101548165
128.50828192998927,18.061439691909126,58.26492564645115,8345.428490729026,11.205206974203211,35.95846347532496,45.80760949621195
129.00828172998922,18.062851772815293,58.265702171468696,8405.368935256247,7.054436851590298,29.819477445198206,44.628267546062716
129.50828152998918,18.064242261631446,58.2664611189866,8467.622139606518,-16.43762164550775,34.59040253464161,42.910575951014195
130.00828132998913,18.06557672911118,58.267208508481325,8533.551634475416,-17.400536962476888,42.58740850113688,39.243559661456985
130.5082811299891,18.06682868572897,58.26793935505867,8604.31819145828,-11.085575599736048,36.108092735460815,41.11201594044113
131.00828092998904,18.068037843958304,58.268660586948016,8676.774334098423,-28.90068769723344,40.19989684595378,38.20036279296802
131.508280729989,18.06919191496229,58.269376039138905,8750.825695028429,-24.25614987183372,38.30021847183964,39.59438228667091
132.00828052998895,18.0703051132172,58.27008784662186,8825.3828650156,-39.33713761961157,41.65841088741147,35.481010223267496
132.5082803299889,18.071347860390862,58.270798725429515,8901.409603929744,-49.87668964220887,47.83717904407406,26.345229403703136
133.00828012998886,18.072283208892856,58.27150775465603,8979.60803861881,-38.802012951569544,45.17360439827364,29.605697002371382
133.50827992998882,18.073169755902345,58.27221536402845,9058.074924057208,-25.08605532001376,37.70585338429496,35.712360333580705
134.00827972998877,18.074066554810496,58.27292614066323,9134.188712829164,-19.001731592246898,42.02758674794291,33.53938671650374
134.50827952998873,18.07492489815829,58.273627517561856,9211.144520691454,-36.01230480892387,51.77607986437766,25.63195356872988
135.00827932998868,18.075698951450725,58.27431240022943,9290.779632398255,-30.23578990387749,49.8298455580262,26.910226392017563
135.50827912998864,18.076406333802467,58.274983975686,9371.969751041232,-42.84698125586082,51.29404405399455,22.90715913018724
136.0082789299886,18.07705380793298,58.27564654924631,9453.925232550118,-35.73740249681548,50.7018009138994,23.126823643238275
136.50827872998855,18.077668918451863,58.276304541782416,9535.676062066948,-22.891914063102625,43.14261883064507,28.952909124986665
137.0082785299885,18.07830328156617,58.276970504349414,9614.761715686647,-15.761413438784093,35.89455997356986,31.927011728073246
137.50827832998846,18.078971598482333,58.27764723416297,9689.418967096755,-31.87703951101969,39.034639518468495,28.898388908390796
138.0082781299884,18.07962836092842,58.27832524373689,9762.487774738769,-50.8600357256551,48.70752895037229,17.54695541006261
138.50827792998837,18.08022511213777,58.27899885184294,9835.979276943577,-40.21615672258778,47.85439865214243,18.680572287929767
139.00827772998832,18.08078419299191,58.279668667705636,9909.314724299025,-25.09061443179927,40.7518459301053,25.128067835863508
139.50827752998828,18.08135275550498,58.28034448114277,9980.359792437539,-16.408473803404355,33.40778092479547,28.538953995492207
140.00827732998823,18.081959798512138,58.28103541421111,10046.529420233703,-11.915933703674778,27.894362868385173,29.838251630593067
140.5082771299882,18.082611857054037,58.281744652815185,10106.379968042904,-9.403229451994795,23.669589722616713,30.28962945233564
141.00827692998814,18.083305741871865,58.28247173256621,10159.407583634618,-7.850148255259663,18.485866340434143,30.72892719655283
141.5082767299881,18.08403783501495,58.283214976354195,10205.072586679298,-6.780743361027531,13.551462599946472,31.00689659642917
142.00827652998805,18.084806345320132,58.28397562306476,10243.027496416624,5.266960617506211,15.169446518624524,30.954094106004916
142.508276329988,18.085597015422863,58.28475189658229,10275.58592571305,9.291193726744131,11.50798337525366,29.028784478913888
143.00827612998796,18.086394760853857,58.285538238256585,10303.562528606182,4.985180827270395,5.3943073564564274,27.749106547183366
143.50827592998792,18.087195789104115,58.28633369221451,10325.034612139822,2.855829226310143,-0.012379022534271374,27.280009714804663
144.00827572998787,18.087999053727458,58.287137934621185,10338.845801764692,14.48071214373907,-4.983545240802049,27.24372044317719
144.50827552998783,18.0887936876064,58.28795213870149,10344.794825192508,19.513803393927688,-9.32944971428759,24.75242976648847
145.00827532998778,18.089567877684008,58.28877145027488,10343.772173724112,12.00659654401474,-13.604560958897842,23.07983138947122
145.50827512998774,18.09032453531932,58.28959141497978,10336.096608613292,-3.786949812811528,-14.217175429710645,22.69159081976857
146.0082749299877,18.091073378697008,58.29041107842441,10323.974298847577,-26.680785320272218,-7.337799601237128,21.5205823051495
146.50827472998765,18.091803573435136,58.29124240710234,10311.281171074892,-43.293404093155196,2.3935942603366636,16.51771675979371
147.0082745299876,18.092482609656745,58.29209195482344,10300.274917041761,-36.18915025463104,7.196385023730656,12.499764506760814
147.50827432998756,18.09310658152834,58.29295425704279,10291.740741503441,-23.36411250123117,5.255715875130085,13.518610146402903
148.0082741299875,18.093700373424223,58.2938273268509,10284.702988193723,-16.242332118154202,-2.290577087116043,17.269880529224693
148.50827392998747,18.09429059613298,58.29470852904319,10276.192545547709,-10.365971164569888,-10.418235085882499,19.81319684507207
149.00827372998742,18.094886229752166,58.2955903049049,10263.384842132102,-6.598175782796747,-17.17933662809258,21.006539908161084
149.50827352998738,18.095486891154255,58.29646561556195,10244.005726385656,-4.71118515063642,-22.73539257464697,21.512263954678545
150.00827332998733,18.096089254048312,58.297329935256336,10217.56225607121,-18.55793564973564,-27.704360501766413,21.569703135854947
150.5082731299873,18.09669682323884,58.29817927324155,10185.141479559928,-36.91536422130582,-23.96017334299329,19.498802116273616
151.00827292998724,18.097305085384026,58.29902781035972,10149.296667470142,-31.31635289802121,-20.484207685462497,18.684414615299545
151.5082727299872,18.097914129819152,58.299880979788604,10110.720740713039,-20.603748160841164,-26.782216811690912,22.77075792094814
152.00827252998715,18.098526769765353,58.30073137968047,10068.973591547925,-29.11457403427896,-24.81888359533506,21.039704606387943
152.5082723299871,18.099139751110133,58.301587403011624,10024.996011120316,-27.355379106033357,-21.800685929752674,19.9872394087294
153.00827212998706,18.099758347288017,58.302452257867415,9978.432910799424,-19.004533051077843,-28.99999336334748,23.44937521823052
153.50827192998702,18.100389015974248,58.30331215310284,9927.0412594741,-14.257655029119379,-35.86914774791332,25.581211977820793
154.00827172998697,18.10102798001163,58.30414792901679,9868.28936774869,-12.156159294693355,-41.7245723229444,26.893768166556775
154.50827152998693,18.101666540412396,58.3049510393873,9801.935443138344,-9.811232009460936,-36.447196439217,25.114421336656836
155.00827132998688,18.102309746337934,58.30576279378225,9733.871759019212,-25.893471742465323,-24.118705628333064,20.35435195627169
155.50827112998684,18.102929587983667,58.30661644846697,9669.09417756655,-43.20684143194248,-18.37250726560077,14.434516453498782
156.0082709299868,18.103486106896117,58.3075118843685,9607.73006055235,-33.53086393807741,-15.09968373712254,9.102758799229974
156.50827072998675,18.103972538928073,58.30844752486504,9551.208952886305,-30.857602942707686,-12.379389403839992,6.258720962964724
157.0082705299867,18.1043819532535,58.309422600715195,9500.700924911436,-28.239929580227027,-15.646203138136714,8.225463231807835
157.50827032998666,18.10475906504045,58.31042089818666,9451.667706635357,-19.74950827430012,-23.862166160148895,12.010762098917246
158.0082701299866,18.10514006766556,58.31142457338659,9399.703128750578,-14.422763004799078,-31.31717134714448,14.427810795567492
158.50826992998657,18.105531244340295,58.31242138736674,9342.975985689909,-30.080600473991097,-26.204560649063023,10.990062128531687
159.00826972998652,18.105913020948545,58.31343091559086,9284.868019300506,-25.825281646652876,-25.45301785388013,10.903048829821286
159.50826952998648,18.106293505292896,58.31444952863248,9224.55963037514,-18.47853103271136,-32.8538266005182,14.246504150326427
160.00826932998643,18.106689781198433,58.31545408362936,9158.616788701005,-14.134146663283289,-37.85352150126252,15.591629166036867
160.5082691299864,18.10709965669738,58.316438311439406,9086.373095955392,-10.397161655518468,-29.464732471763384,12.95406466898359
161.00826892998634,18.107504302795743,58.317449412104715,9015.37841259006,-28.12256734009352,-20.936069469489134,9.333386885649931
161.5082687299863,18.107866150248082,58.318501721600136,8948.944179453922,-21.19927175129394,-17.545221486192776,6.210895883933968
162.00826852998625,18.10819418986886,58.31959109757094,8887.333333870125,10.979727274282043,-14.921083838207625,6.658843400154355
162.5082683299862,18.108549181374077,58.32071470201157,8833.478201027057,15.55476778220685,-10.835601005333018,9.59894171405246
163.00826812998616,18.108957964249395,58.321864755772566,8788.233633968917,11.78265269350311,-7.008496886954414,11.815512075438201
163.50826792998612,18.10940782222913,58.32303448584137,8750.301135613445,8.716259287731614,-14.071849276423086,11.072801191275024
164.00826772998607,18.109861268612764,58.32421134874268,8711.204016944523,33.82412495262861,-20.405549028735958,10.069463074672793
164.50826752998603,18.110323196936495,58.32539221119511,8668.941093171823,47.47702633452139,-11.578240511909017,17.452488878268323
165.00826732998598,18.110877699551807,58.326578310198194,8628.980289104695,38.30783830454446,-16.221760894727417,12.937399286188862
165.50826712998594,18.11147050785917,58.327767789456416,8589.682243138013,6.860854420049426,-10.003680990149716,15.081389143040761
166.0082669299859,18.11208805451025,58.328969369827945,8553.742317276057,1.0865833285457323,-15.533010217389476,15.35134924530962
166.50826672998585,18.11271040934552,58.3301768357872,8515.382112436242,0.5281462417871773,-21.380877524074155,15.187926457943899
167.0082665299858,18.11333349691911,58.33138310131551,8471.711160547775,21.21390181428463,-12.510398491905123,17.121476892423892
167.50826632998576,18.11400743041864,58.33260149004956,8431.508875206131,18.33567750206951,-6.587158841694003,19.48953080999268
168.0082661299857,18.114742775024315,58.33382846727206,8397.662616669659,12.429784349012866,-14.112225275507882,17.445864562765486
168.50826592998567,18.115485165339358,58.33505875556383,8361.921159212128,8.534779364990744,-19.52316744549871,16.397796509429362
169.00826572998562,18.116222103709486,58.336289987763216,8322.043613947195,5.993738900885378,-9.423946842014075,17.81530528024033
169.50826552998558,18.11697765590779,58.33753558996817,8285.233208261643,4.276695492459939,-16.07433743129363,17.33972792497385
170.00826532998553,18.1177393964434,58.33878738088558,8248.006717461785,3.0162379976210247,-7.510371974816812,17.93963286809592
170.5082651299855,18.118514893998057,58.34005206341635,8214.680511536444,2.1429541942780093,-14.634293506526335,17.6772638101143
171.00826492998544,18.11929536298939,58.341322621815486,8180.989162799764,1.513227057920501,-5.991856607241317,17.979577068604943
171.5082647299854,18.120085166342953,58.342603333258886,8151.373520818842,1.0733280909605465,-13.216678622066494,17.846457063348637
172.00826452998535,18.120881694758985,58.343889097609896,8120.702440524048,22.502512511475413,-5.651818599309241,19.709628676258074
172.5082643299853,18.121718014674386,58.3451796335753,8093.18275483,19.769853154311058,-12.231384078389386,17.097655843963583
173.00826412998526,18.122551677516118,58.34647130587883,8062.986952402729,14.528982254516277,-16.128382785797623,16.24525513139694
173.50826392998522,18.123375504290237,58.3477646330139,8028.547984381199,32.97400650047848,-7.490586219644108,20.62468587731981
174.00826372998517,18.124254277891353,58.34906157561243,7996.717202448696,27.26771956352174,-13.409084630414931,17.310187180305363
174.50826352998513,18.12513000889173,58.35036101939306,7962.222435434819,19.957583871675073,-17.169929643703348,16.13672957573242
175.00826332998508,18.125975041718352,58.35165696874618,7922.105242102423,15.148552791465313,-19.74153403707319,15.874549888323767
175.50826312998504,18.12678998919883,58.35294445118524,7876.010489284238,11.784674766899174,-22.20461860208547,15.792661668471732
176.008262929985,18.127590774623712,58.35422923354606,7826.087935357618,8.795191711864208,-11.84213307780911,18.190133810987746
176.50826272998495,18.128424037682397,58.35553135832603,7783.051122214794,6.300661347693759,-6.833455045303281,19.192435890489147
177.0082625299849,18.12928927184523,58.35684567617112,7750.221993949387,4.40118555270104,-3.122543057785878,19.664734603715715
177.50826232998486,18.130172455886427,58.35816722738259,7725.50801871121,0.09300759182268262,-10.968530881820904,19.593791174435367
178.00826212998481,18.131056893888385,58.359487728984625,7698.100689420999,-0.478923217162948,-15.251148371111334,19.567426515818163
178.50826192998477,18.131936392499508,58.3608013148843,7663.761282486025,12.190879950107215,-17.454658817906015,19.31765860973712
179.00826172998472,18.132816523063536,58.36211349565308,7625.809376523838,8.495328135717523,-6.956036297664358,21.02761283055213
179.50826152998468,18.133732171348587,58.36343370787347,7595.498175076622,5.481512303286793,-2.181608760533706,21.420761468938593
180.00826132998463,18.13466844370364,58.36476002582684,7575.925513275871,-19.041545346628435,1.1590968605737044,20.393262702898298
180.5082611299846,18.135567020978854,58.36609733212487,7565.470641506088,-17.9386716940786,5.084256060989263,17.96880022553063
181.00826092998454,18.136425533434085,58.367443143595594,7561.624815329415,5.246785817513878,-3.161314101834137,18.675520626892823
181.5082607299845,18.1372753990567,58.36879763036277,7554.040243061114,53.16432154903069,-7.607210503042882,16.632731267216244
182.00826052998445,18.13812282324647,58.37015661055401,7542.165817492587,44.96841452623059,-1.0712641490937669,24.12360747979036
182.5082603299844,18.13906172168848,58.37150157265279,7532.569781241033,29.234502575106408,-6.299367784156021,19.77303567029677
183.00826012998436,18.140018523663837,58.37284331911239,7521.99791356363,19.355157297807448,2.5035189137874005,23.323959826614274
183.50825992998432,18.14102153553972,58.37417260150415,7519.2193581294805,-9.594851568204303,7.0810700159359845,23.28342391964068
184.00825972998427,18.142001660339282,58.37549643560107,7525.841227761546,-34.50923878294751,10.844387232619665,20.195172500886184
184.50825952998423,18.142888229667797,58.376825602598316,7539.6920986409605,-51.99147172107782,12.907034305501842,15.74051459027251
185.00825932998418,18.143665781349846,58.37816382013981,7557.627276337133,-63.99549511111671,10.940078773150512,15.532716117872173
185.50825912998414,18.144360072268928,58.37951074400483,7576.8461510730385,-51.219755701419025,13.217947293159575,8.996722167834045
186.0082589299841,18.14494285419657,58.380862729430376,7599.040475558916,-34.61395947494223,6.8807523244624855,14.201066363269714
186.50825872998405,18.145532849260878,58.382217758845684,7618.200672981844,-24.26932427266031,2.91141421440603,16.110248996992297
187.008258529984,18.14615422779637,58.383577255179254,7632.806211192013,3.537659088936966,11.506010577100827,14.062615458710862
187.50825832998396,18.14678246595253,58.38492761003277,7653.562511031658,5.538459896430678,16.376774249887216,14.505361003498669
188.00825812998391,18.147419287318836,58.386260077745966,7681.751621252453,3.714107825529764,8.49543827858227,13.908542744303139
188.50825792998387,18.14806239053701,58.38759381451367,7709.372262512121,25.02447395001249,16.13057630684271,16.171982118117292
189.00825772998382,18.148754667118375,58.388903097920696,7742.764854849065,21.22078786358236,20.7282744356991,18.702368323560943
189.50825752998378,18.149498658462537,58.390168364209245,7784.587089040902,14.54515113858643,24.508784564213467,20.030022455195592
190.00825732998373,18.150260295564696,58.391386128621036,7835.148679064808,-12.53502800611122,28.189055052952142,19.410144386305543
190.5082571299837,18.150980541842312,58.39257005709398,7893.112614898155,-14.79631530908883,32.511242805754755,16.755826141811372
191.00825692998365,18.151648647844052,58.39372744826189,7956.947765860185,-10.609054619826601,24.592367354663025,18.014607503117492
191.5082567299836,18.152320667468796,58.39488754499992,8018.667850567845,-8.058477231888714,19.163545356992312,18.652290394340337
192.00825652998356,18.153015689553648,58.396060847206755,8074.043017823571,-6.339248720435719,15.896256943005334,18.78660467868471
192.5082563299835,18.153732370042487,58.397247347231584,8122.390784413693,-5.086653398413632,12.847200426806197,18.84500237509148
193.00825612998347,18.154467514681187,58.398445453353744,8163.497943484748,-4.133348215968856,9.80129147449189,18.881172254421955
193.50825592998342,18.15521459329814,58.39965176555977,8199.264458749169,-3.408357357412094,20.031482966842315,18.00918240737406
194.00825572998338,18.155938944024403,58.40084436768048,8239.996198363951,-24.578994486464232,25.807474327721103,16.171996263780567
194.50825552998333,18.15660030096556,58.40202019398829,8287.181763315662,-14.51393363272283,29.02054062498493,13.709410214808692
195.00825532998329,18.15721533437559,58.403178022650955,8339.284990783846,-5.23921841321988,21.035471837699756,14.77469900227347
195.50825512998324,18.157824277911306,58.40433440615934,8390.06360774054,-2.8593521555457055,14.772496757464129,15.465319202389836
196.0082549299832,18.158438138324573,58.405497449421766,8436.52002097452,-1.7972121288925842,24.52454328072784,15.150940895488091
196.50825472998315,18.159037660841776,58.406640092944905,8486.83963472778,-1.1686041177656847,32.04629234315445,14.981354362370821
197.0082545299831,18.159615310832056,58.407747727451444,8543.394581329198,-0.6530589004477853,25.048869088570772,15.165873055488493
197.50825432998306,18.160186791905343,58.4088452997031,8600.911837908223,-0.37230270505791835,31.33166727716878,15.153037174872546
198.00825412998302,18.160742740170104,58.40991470322046,8662.870051085874,-0.21787253015162072,38.618420114065884,15.139770629556057
198.50825392998297,18.16127558461847,58.41094093780437,8730.626194943718,-0.10033895467567576,32.09308332887172,15.189225274673559
199.00825372998293,18.161804894733933,58.41196053656739,8798.238154048884,-0.025958464646306616,24.086117664499515,15.214861983202928
199.50825352998288,18.1623400702408,58.41299071091793,8861.389468558395,-28.71770129190229,19.454184674711545,15.574725412342227
200.00825332998284,18.162864920978766,58.41402088787235,8920.4799232552,-72.26850689906573,24.695298818004932,8.659328268587789
200.5082531299828,18.16330857325926,58.4150541990555,8978.445345882334,-63.666303095864855,25.93873395108358,10.380224212213225
201.00825292998275,18.16373825400863,58.416094457305576,9034.477834480289,-41.368255935756764,21.427589385520022,17.433870654639314
201.5082527299827,18.16421429358487,58.417144439233454,9086.275749046004,-12.330285924061517,27.53789861019247,14.442683031411779
202.00825252998266,18.164681485845712,58.418182839560416,9139.577834320397,-18.52774999606968,35.91163888486601,11.094893251691028
202.5082523299826,18.165084049279276,58.41918537539894,9198.810918693558,-40.683313788684124,40.11376550306253,6.352030376764568
203.00825212998257,18.16539655561099,58.420160543632186,9262.065773037046,-37.47063169222742,42.95077589360631,0.5553541639152932
203.50825192998252,18.165623208245353,58.42110564983084,9329.06070403003,-24.112664138491137,37.56331183496417,3.9376608470702723
204.00825172998248,18.165817603158967,58.422038099922595,9397.018361482511,-15.402773206812467,30.53940378093507,7.105974542339357
204.50825152998243,18.16601502847582,58.422976460489274,9462.496712165908,-22.60427737323365,28.901249162494008,6.874927751058541
205.0082513299824,18.166196077151337,58.42391231519363,9527.075304197619,-42.92922790424969,39.57337442714778,358.9491932588759
205.50825112998234,18.166319645098437,58.42483311262678,9593.324581641278,-34.93922150988315,38.29765508150334,0.3124546113833143
206.0082509299823,18.16641375583858,58.42574664054434,9659.715505577302,-22.877859713663433,30.66402949286483,5.320705462720971
206.50825072998225,18.166520134091705,58.42667232834919,9723.11720408486,0.8226725388243044,34.404200689929574,5.468943954184329
207.0082505299822,18.166633906753354,58.4275931155421,9786.216137555186,4.793929277152576,35.62257698905853,4.194281821358095
207.50825032998216,18.16674985109126,58.42850713243197,9849.203384359593,3.0081979233578378,27.231431991379193,3.4858543981561665
208.00825012998212,18.16686584016964,58.42943552818775,9908.469826464532,2.0782846141541054,19.960941503263324,3.1490949519785003
208.50824992998207,18.166979971221068,58.43038813363257,9961.018660378246,19.56739076925054,24.194127394149127,4.754863515662257
209.00824972998203,18.167106847835008,58.4313417743509,10011.931309298445,18.151683833718597,30.509775728660024,6.515282234158515
209.50824952998198,18.16724956492548,58.43228620200475,10063.075754698679,11.327572562918068,22.989772093865447,4.109344572022762
210.00824932998194,18.167390775109364,58.43323833118968,10111.084187666998,7.429841694994365,15.525988278588502,2.766465691560718
210.5082491299819,18.167523352908976,58.43420567004149,10152.871273972429,5.577353921055047,9.454318279592965,2.1573973738488177
211.00824892998185,18.16764679211794,58.435186518219496,10187.474427519814,4.703851660621355,14.402607288314401,2.730944168991393
211.5082487299818,18.167768900558894,58.43617195503722,10219.761810802675,3.638781880088282,18.402738887387713,3.2960452893229895
212.00824852998176,18.167892560768795,58.43716231885251,10250.913673406214,20.80533709910241,20.89044252580229,5.052406216891017
212.5082483299817,18.168040202255533,58.43814557005445,10283.40109265543,19.813887971790304,24.066869238545827,5.996631775257721
213.00824812998167,18.168211895096164,58.43911824204561,10317.757793413532,11.841974719336045,17.655901587780736,4.607500773065495
213.50824792998162,18.168385162601677,58.440095287010045,10350.338734873725,8.417842127982013,9.59800032005153,3.2962170741985255
214.00824772998158,18.16855209892491,58.441076253298824,10378.636490831637,-8.136722954568047,3.1841741901820932,2.571241866332963
214.50824752998153,18.16872080876103,58.44205941766893,10400.699904633102,-9.291865783029564,-1.8284197977788579,4.8961346304360855
215.0082473299815,18.168899529311346,58.443045379470206,10415.335235979537,-3.7741452352872233,-6.4707983881348685,5.730613423306142
215.50824712998144,18.169082675591238,58.44403425443692,10421.75707465834,13.400926340742338,-2.0657528380359027,6.703582469513648
216.0082469299814,18.16927132996697,58.445029803967216,10424.121020252645,15.155502351158791,1.0908950617142097,6.354537318955941
216.50824672998135,18.169464011561992,58.44603068982251,10424.406087287656,9.699046004522678,-6.192303253936904,4.537038236119699
217.0082465299813,18.169649823880924,58.44703393737749,10419.793452013628,6.79598994649116,-12.8196063511167,3.615878550459042
217.50824632998126,18.16982019920498,58.44803493345528,10407.127214110333,23.10884874198393,-18.486722911012265,3.2995579418328678
218.00824612998122,18.169955417857416,58.44903127833174,10385.556621254156,27.011219467539153,-22.701272955360967,359.3980475034343
218.50824592998117,18.170041333005994,58.450016599091626,10355.539008043528,31.513297988461137,-27.466574079096898,357.38479530854755
219.00824572998113,18.170062256733303,58.45098829956043,10316.29662751539,58.45028000259998,-24.192956257016874,1.932279298346019
219.50824552998108,18.170086423505442,58.45196419911926,10273.353387428686,56.71384533949099,-20.374653688805903,5.036985578514291
220.00824532998104,18.170151988445692,58.45294732659073,10229.024220860214,38.28521914393085,-25.289936395624064,358.2943298585679
220.508245129981,18.17020009229321,58.45392995248316,10180.913453935666,27.87788373885054,-31.43350537131307,354.03735390006153
221.00824492998095,18.170211343573033,58.45489703313754,10127.127541857219,23.39318925018338,-36.796327771182085,351.59756155265444
221.5082447299809,18.170188429016417,58.45584147158192,10067.590903025992,19.2326256471835,-31.533330922200676,354.8059117330132
222.00824452998086,18.170164004105775,58.45679287487701,10006.056630594609,34.33035369503446,-20.066750543174738,1.941037351743535
222.5082443299808,18.170196494494633,58.45777142835276,9947.019520379725,34.3666718573638,-22.61047892226231,0.9102493951529167
223.00824412998077,18.17026503271104,58.45876847826621,9888.711440497587,26.657845547231403,-30.679208289231397,356.69553383694915
223.50824392998072,18.17032005805933,58.45976375230196,9827.189485729365,22.100531786701254,-36.520212051955845,354.5444503696851
224.00824372998068,18.170350095607073,58.460744502564985,9761.116632220155,17.469473607688588,-29.801324413188393,358.33248165431723
224.50824352998063,18.170391342474577,58.46174206279422,9694.716957062754,33.350406766153306,-19.862365244832777,4.262384963293372
225.0082433299806,18.17051214815221,58.46277211883099,9632.766629298136,29.27347953641618,-16.404728296490703,8.23912551485172
225.50824312998054,18.170730108258375,58.46383216023636,9576.963227134878,34.138750570607286,-13.442153222328661,11.55804541361875
226.0082429299805,18.171049448580078,58.46491378312876,9526.89059224367,27.56836341482201,-10.844493187761353,14.21068074994653
226.50824272998045,18.17146186940213,58.46601106505058,9483.02923089746,16.74998078517258,-16.768549779829716,12.416443395534808
227.0082425299804,18.171894068575526,58.46711762618322,9438.813593348157,11.348687621516683,-24.843768269427244,10.108078277297952
227.50824232998036,18.172318762968295,58.468224747259036,9389.847750753781,27.807654286766816,-18.293546397967408,13.215961863152229
228.00824212998032,18.17279084037759,58.46934484564692,9342.394127158392,14.22551586602515,-10.630808175131016,16.63005396600791
228.50824192998027,18.17332205667126,58.47048077942966,9300.464689756984,3.664083637042801,-16.702328764308415,15.659994888667065
229.00824172998023,18.17386472969611,58.47162728768612,9259.078626930695,-19.760021783007627,-11.781942708222882,13.394152241648252
229.50824152998018,18.17439738121998,58.47279235018879,9219.404527503017,-19.725772529679443,-15.904867227314458,14.782362739987178
230.00824132998014,18.17492830277163,58.47396754917895,9178.963136137041,-14.377614584213063,-10.155615945999653,12.586790134079255
230.5082411299801,18.17544670094429,58.47515826748893,9140.925391721115,-10.428047432121172,-15.42271140143676,13.285832326183488
231.00824092998005,18.17596544359405,58.47635361848754,9101.111510570741,-7.710332101839759,-21.978253927931128,14.20846531394871
