Time,Longitude,Latitude,Altitude,Roll (deg),Pitch (deg),Yaw (deg)
1.0083329300000023,18.00000033156506,58.00297077229157,6994.063634773833,0.003929975309638311,5.25428780018976,0.0023382211603133435
1.5083327299999973,18.000010629315742,58.004428003846506,6996.82955808818,39.43907081621271,9.891905564822993,1.8424625831575423
2.0083325299999926,18.000100520358657,58.00586840023494,7005.900709153167,47.02110727030212,4.69726224538297,357.51559259262166
2.508332330000001,18.000192279773223,58.00729705966127,7013.94197425425,35.90732078379731,1.0107714945798072,356.01789380560257
3.008332130000009,18.000267598782948,58.00871625241256,7020.237386988071,27.729130412743153,9.374710313405268,2.6239745806855153
3.5083319300000175,18.000411501469987,58.010118237734794,7034.6615377097905,-0.9834350866958596,13.410163106658738,4.340508639313073
4.008331730000026,18.000568081134375,58.011497571784496,7059.024916506413,-4.642772065188041,17.90987139676032,3.575692604525468
4.508331530000034,18.000704951348677,58.01285359290163,7091.670122188747,-43.68707245756372,10.755105030523497,5.2490153038896565
5.0083313300000425,18.00083442144314,58.014207285351475,7123.918498029042,-45.21704429149587,16.637435982144794,357.5752942898405
5.508331130000051,18.000886782472037,58.01555749749606,7158.3753150632865,-29.610228687919413,10.777329197796378,2.0127214451438893
6.008330930000059,18.000942659954777,58.01691397398504,7189.635367655281,-20.127817082205308,6.886613600217867,3.7748917824881674
6.5083307300000675,18.00103035174645,58.01827873757601,7214.17820836975,-14.523768092761852,3.9699943658461048,4.34340699432412
7.008330530000076,18.00114028209528,58.01965066840539,7233.401076454067,10.705793539809227,13.115486760024407,3.6987890914538326
7.508330330000084,18.001282689182304,58.021012665602974,7257.801173491144,33.94307715612692,17.262377073700243,5.846519204305949
8.008330130000092,18.001499018374357,58.02235248160491,7288.299086566991,28.36144618409985,10.640275895618577,2.3489724778306504
8.508329930000047,18.00171475752957,58.02368970596913,7316.888832519204,21.213084102832468,6.372756096166484,1.0769922492106256
9.008329730000002,18.001901487444304,58.02503169200944,7339.939227614406,16.47149903241747,3.47081018683286,0.7900549402446694
9.508329529999957,18.00206130128248,58.02637781169049,7356.748109130657,13.090173525113332,0.748485237900523,0.6951060224453977
10.008329329999912,18.002206854751666,58.027725628534554,7369.409983881623,10.42018755877594,11.176100120164845,3.3875703149609144
10.508329129999867,18.002368349754843,58.02906979182676,7386.264202624181,7.662857922553561,4.464834690366973,2.742900950645861
11.008328929999822,18.002532998381113,58.03041526059682,7403.110340013859,5.853630102600176,13.33181783809143,4.003203975597043
11.508328729999777,18.002707488177325,58.03175281579823,7424.631336116526,4.175455114161393,6.379988871865336,3.570531003851731
12.008328529999732,18.00288167278356,58.03309313242652,7443.6052125346905,3.114940872732106,1.5805327815805321,3.3562434077892798
12.508328329999687,18.003051575231396,58.03443856226905,7455.9459934457755,2.417885037454628,-1.4048416384001465,3.310404162822717
13.008328129999642,18.003217307402224,58.0357852181316,7461.114285567803,1.9239765534419433,-4.227252588848607,3.2933760811766084
13.508327929999597,18.003380748921536,58.03713181030621,7461.421319565708,1.5198605416988458,6.407328072830599,3.6874284711949605
14.008327729999552,18.003546843707003,58.038473345189644,7467.965576391113,1.1182595727096167,12.305152536991008,3.8860450562672466
14.508327529999507,18.00371484351973,58.03980310092359,7482.285624550895,0.7814552217118297,4.490976261127224,3.78237876449178
15.008327329999462,18.0038785436743,58.04113897945026,7493.70008497434,38.24696617478185,-1.0441415564071628,2.9369985448224822
15.508327129999417,18.004040595236777,58.04248315647619,7500.363007530723,36.58817997775305,6.643866354448302,8.908601734667743
16.008326929999374,18.004293930017962,58.04381973538794,7511.739909311476,24.001673825345776,12.244999812839389,11.547482825455821
16.50832672999933,18.004631743917557,58.045136808051154,7531.457248157484,15.277824392533322,16.58933157347854,12.251816361282229
17.008326529999284,18.005016766976276,58.04643559138189,7558.191080759669,8.865821972132414,9.134663311714773,10.003525185152531
17.50832632999924,18.005414771292312,58.04773528124723,7584.319982452539,26.774867438778692,16.02719435542858,12.204097753615391
18.008326129999194,18.005854624497175,58.04902351270546,7613.701388808158,21.65668409074568,9.882583375846863,9.146750089709064
18.50832592999915,18.00629616832592,58.05031374106963,7640.798876396889,15.374763066842743,5.127168479060573,7.7847409568020876
19.008325729999104,18.00672674621236,58.05160841199544,7664.004201109216,11.638031858144652,15.194537047982406,10.54328396699704
19.50832552999906,18.007183425016436,58.052890859286975,7692.225028148595,30.833524739637927,20.11588550759098,13.05766672268862
20.008325329999014,18.007701783966034,58.05414480578263,7726.937131315121,16.081759427458568,13.589007415289153,10.02486339062137
20.50832512999897,18.008229888337016,58.05539350139683,7761.152216180599,38.47409720917709,8.660526281875521,9.872079955057083
21.008324929998924,18.008740589361935,58.056656416757185,7790.24279393996,84.31901559821284,12.425506333997792,18.791161930368286
21.50832472999888,18.00934831013639,58.057905650717835,7817.723552355516,75.48098442350157,12.020787081946809,12.797973040954323
22.008324529998834,18.009979062982328,58.05915096406089,7843.086524530337,53.330545934980975,9.15124770156376,8.400199758964508
22.50832432999879,18.010566976200657,58.060403282794496,7865.006902315557,40.1345229385256,6.024219518738576,6.8268464981463755
23.008324129998744,18.011117509979364,58.0616634222232,7883.038362612445,76.27995228714045,10.732957358805178,16.95615596157415
23.5083239299987,18.01174452905337,58.06291374417705,7900.236654572135,76.2215135806311,9.536536003974202,12.517614027146095
24.008323729998654,18.012379027864167,58.06416258971786,7915.7304136662215,100.53615234234428,7.3455808199697215,8.23663216401741
24.50832352999861,18.012971558180734,58.065415942837674,7928.981630459261,90.16217884192022,5.324623051937414,19.304159882303775
25.008323329998564,18.013662189903023,58.06665221504772,7939.88562591878,60.51547378432013,3.265426886197414,15.21406383062546
25.50832312999852,18.01436879817368,58.06789055188811,7948.464724786976,63.54107511902696,4.073747718688354,17.372995935446088
26.008322929998474,18.015104226273213,58.069129532462426,7955.65480930093,48.27035421474232,1.264882421111179,13.4455409131668
26.50832272999843,18.015844181467813,58.07037032547761,7961.179877236149,34.91502483332588,8.098620735133883,19.980986363609567
27.008322529998384,18.016651300912613,58.071591528450874,7972.263781411279,4.7369685080979265,13.62254921903403,22.576049766715837
27.50832232999834,18.01747963925593,58.07279096926834,7991.622070325545,-2.4889857433374565,18.74836584583174,21.602987139153925
28.008322129998295,18.018295590211114,58.07397408745572,8017.910423327655,-2.830189605587232,11.23488750600323,21.194876623320415
28.50832192999825,18.01911147013423,58.07515536310944,8044.957161721409,-2.9077589787228164,18.095169051180566,20.43741221337726
29.008321729998205,18.019913064316484,58.07632295240004,8077.543632127369,-2.3878988022719847,24.53362578644794,19.82582025153323
29.50832152999816,18.020677988618495,58.07746022113059,8119.18921951046,-23.225633664556465,28.11866679225915,18.13820839726025
30.008321329998115,18.02136341503606,58.07857471126632,8168.155878396536,-44.464320420481656,31.188145196941846,13.425973334592687
30.50832112999807,18.021941599614344,58.07967596344714,8221.767690097377,-39.985997221046006,33.7707415713692,7.774207345362779
31.008320929998025,18.02240001655637,58.080753416608644,8280.7505730422,-28.06080766272412,37.08674717065229,4.603647244040583
31.50832072999798,18.02276834974383,58.081794401760945,8345.61077286104,1.2635587345223829,41.13805733081261,4.999400766632795
32.00832052999794,18.0231189685076,58.082784566543275,8416.536575614044,31.36445244947351,45.301788519279135,10.587256430802643
32.50832032999789,18.0235185723292,58.083717014018845,8492.56679899369,32.7198470690829,39.95386782564206,9.212842664237767
33.00832012999785,18.02394809552114,58.08461501184174,8570.35101250923,19.374885071622348,43.99439436976627,13.008454454765683
33.5083199299978,18.024393464814136,58.08547038950895,8650.700995812034,12.759839029528885,41.802410814041735,14.313929066352093
34.00831972999776,18.024839577843224,58.086313778499395,8730.637627053873,9.676404480672153,33.59580149636385,12.747460832331926
34.50831952999771,18.02528008076638,58.087162329468036,8807.625187380509,-9.990238431649244,38.844943213605546,12.303601032006705
35.00831932999767,18.025703471145167,58.08799873757821,8884.55305318813,-9.356480412159934,40.39010950543849,13.30740477860596
35.50831912999762,18.026118521369714,58.08883193214145,8960.618866378516,-5.149169908535792,32.22259790030671,14.918097823867557
36.00831892999758,18.026542780965187,58.08967926772805,9033.017076694501,-3.273997363428223,37.138116735177555,14.655748813709433
36.508318729997534,18.026962608565903,58.09052144402724,9104.923298076323,-2.122932262441378,40.14773959943209,14.434300130496297
37.00831852999749,18.02736821516369,58.091346812268,9177.867857626883,-21.132230245553245,43.632757315346225,12.223857337926052
37.508318329997444,18.02774508733864,58.09215531629686,9252.141875950867,-20.253867957121944,43.8627747409128,12.614765389379743
38.0083181299974,18.028107042286216,58.09295816323311,9326.389147147474,-13.462862673725546,35.6572532688604,15.575520184865313
38.508317929997354,18.0284855054565,58.093775210538105,9397.384039277771,-9.752089443606904,28.316772945911772,17.105586832328804
39.00831772999731,18.028892726472293,58.09461413472202,9462.755022959134,-8.194942377696012,33.13672559176935,15.994098295388891
39.508317529997264,18.02929257674166,58.09544767006548,9527.444713195682,-26.421356043813944,45.27449272907658,11.046537527803252
40.00831732999722,18.029648679861392,58.09625709254465,9594.297516104374,-24.533282508188577,44.20736859212719,11.259061756035905
40.508317129997174,18.02997345831449,58.097050208752854,9662.055276575249,-17.394447495808546,44.42987231516419,10.570852301461088
41.00831692999713,18.03027648771757,58.09782961906626,9730.529202165557,-11.272323636464572,39.55624778237254,11.715509340534586
41.508316729997084,18.030576632131083,58.0986090511062,9797.794740689376,-7.500946931680426,31.384188593743303,13.253388161506889
42.00831652999704,18.03089005509692,58.099402933564264,9860.857613155658,-5.458692235239926,24.94071806512476,13.920745003605086
42.508316329996994,18.031224011608806,58.10022182467441,9917.509789768848,10.586572679956598,28.666322018002102,14.513127198720737
43.00831612999695,18.03157174439595,58.10104977365411,9971.643737107972,12.688292826690988,37.40770593933726,15.879915272385082
43.508315929996904,18.03192972723196,58.10185296709896,10028.094922230828,5.711292656171615,37.9274177984279,15.992612720217663
44.00831572999686,18.032291517866575,58.10264767450175,10084.840595173127,3.32441881152202,29.666833604242346,14.64449202368855
44.508315529996814,18.03265873914876,58.10345053656484,10138.934945755864,1.579910097230556,21.971112948214863,13.9773950267243
45.00831532999677,18.03303365885986,58.10427303134746,10187.629156696094,15.541922743560015,24.590719702992732,14.943865063664697
45.508315129996724,18.03341832318488,58.10510055425913,10233.980351409273,18.295376948760197,28.40701537160323,15.13302994500929
46.00831492999668,18.033807516050583,58.10593022934643,10278.648140211511,27.475755907646256,21.206364898411906,12.880568096585987
46.508314729996634,18.03418883622592,58.10677702643488,10319.322283195443,32.182015965577136,15.221180272984073,8.410873241971496
47.00831452999659,18.034549071318544,58.10763432473908,10355.389770757001,21.69424459715612,10.116042062559904,5.614422840051167
47.508314329996544,18.034878772081246,58.108505108889005,10385.155026701359,16.226760408080406,5.219357283927774,4.452112637409186
48.0083141299965,18.035182816126067,58.109386511944805,10408.399832267127,13.238914944483605,0.6440108655215127,3.928165188785676
48.508313929996454,18.035461692060178,58.11027619002147,10424.60140983123,27.67764467332958,-3.787921828184341,3.92923344685799
49.00831372999641,18.03570659672146,58.11117368708628,10433.8344479886,37.86929157731028,-6.884782531131785,1.0598679816652596
49.508313529996364,18.03591734261525,58.11207224682768,10437.634043176524,19.753688738436257,-9.82785536542919,358.4654017156679
50.00831332999632,18.036098182556895,58.112970585416086,10435.389697867344,10.601099035682829,-14.084520176748939,358.791608869868
50.508313129996274,18.036257200696355,58.1138665595796,10426.574948507443,10.413703161869048,-18.365755121898484,359.1716816592302
51.00831292999623,18.036397383961823,58.11475719936189,10411.297997307462,9.67610629757321,-22.479553308002615,359.2793351125466
51.508312729996184,18.0365203112402,58.11563996687475,10389.47254224389,8.732380636682418,-26.473568128054602,359.31362493158065
52.00831252999614,18.036629240893966,58.11651116160543,10361.767577795006,-0.7251827448007682,-22.08488506349687,359.99103161830334
52.508312329996095,18.036731785128726,58.11738228103441,10330.891683948023,5.969473971022488,-9.301382259682786,1.5249500631916528
53.00831212999605,18.036837320524075,58.11826625336346,10300.436075600535,9.281525367893396,-8.110133019137367,2.1245339499576805
53.508311929996005,18.03694829716457,58.11916451309423,10271.651119770473,-9.795077034370838,-7.59937390818864,1.8222182811790144
54.00831172999596,18.037050427049216,58.120075819234934,10244.502638231994,-15.759712741113768,-7.5772904423559,2.6020574251506887
54.508311529995915,18.037141479679946,58.12099711453727,10217.853370900906,-26.809146963299668,-15.751403712753145,4.273762945989707
55.00831132999587,18.03723758324992,58.12192355154185,10188.754081496922,-35.2318208427438,-22.17817957313738,8.835485197792487
55.508311129995825,18.037361215939796,58.122846192143534,10155.042223140488,-42.83124541191796,-20.083355920085264,6.039077487176717
56.00831092999578,18.037476283639627,58.12377210844739,10119.547684597948,-45.647191249923196,-16.6018654046701,3.173915973091546
56.508310729995735,18.037601306358653,58.12470652168751,10081.056198236525,-16.60238270706987,-16.960827708130015,4.447710681688935
57.00831052999569,18.037731843827526,58.12565305683961,10040.383940785441,-2.3613732488222,-21.775204016129226,4.0389507555951045
57.508310329995645,18.037860046913558,58.12660979471155,9998.693450683495,-18.74005557694131,-19.724679140786098,2.567058293823889
58.0083101299956,18.037977362067814,58.12757857286186,9956.67821731985,-19.34958480362943,-17.150043921100234,2.426741888420319
58.508309929995555,18.038087244213273,58.12855916494775,9913.5520806276,-13.448287431757612,-25.066895340675966,4.9236713204654885
59.00830972999551,18.038202223092743,58.12954361426364,9867.006738376343,-9.428943507731608,-21.781814063662917,4.152489378663237
59.508309529995465,18.038315636588763,58.13054089403009,9819.584129792584,-6.875191308049977,-18.69712865166412,3.3274383169270654
60.00830932999542,18.038426874499997,58.13155151549448,9771.57064161298,-5.110846805268014,-27.04793524711732,4.167898656455247
60.508309129995375,18.038541631074104,58.132560185421,9719.163375589962,-4.058387647434335,-33.9279697675265,4.681304357100938
61.00830892999533,18.038660262764143,58.13355189579209,9659.801599751036,14.078421576039945,-27.94522231069254,5.743114220718042
61.508308729995285,18.038792948081905,58.13455222789837,9598.553583612558,13.804325422495877,-27.12173363840153,4.947397030693658
62.00830852999524,18.0389323238328,58.135563170479244,9535.168983089341,14.56057809678948,-33.63223695974696,2.818571706935137
62.508308329995195,18.03906399784231,58.136571123957886,9467.559096790972,10.225780319978213,-37.24556398645003,2.014752588459553
63.00830812999515,18.039183394336895,58.13756504084804,9394.516519009128,7.827663289117856,-41.83904439431751,1.317358554192993
63.508307929995105,18.039290237731635,58.13853833364561,9315.793312419186,5.915883661465808,-36.936569868075104,2.3832437793702126
64.00830772999507,18.039394391090816,58.139510135953245,9234.069351454462,4.785513413348442,-42.62515190415587,1.9582903061551802
64.50830752999502,18.039492445115243,58.14046779558858,9147.635391115326,3.828695680387101,-44.51344670232435,2.003809514718034
65.00830732999498,18.03958709570327,58.141418314734466,9057.584597301293,2.7887597547118106,-34.42487985417386,2.9529050912204715
65.50830712999493,18.039684063310286,58.14240573022593,8970.060098157468,-18.004364775663454,-29.474633206437435,1.8422608058556582
66.00830692999489,18.039749516786408,58.143439627299905,8887.206540451205,-17.87750773306302,-24.935828935161442,359.2086597901749
66.50830672999484,18.039772698839776,58.144514595621864,8808.803395972467,-13.138090367060528,-32.68587782995581,1.1057754348360345
67.0083065299948,18.039792208173044,58.14559820790312,8728.576840881336,-9.689805991427628,-39.03984167819346,2.4760002366081917
67.50830632999475,18.039823505390483,58.14666320226382,8642.710896449134,-7.385568483752794,-42.10241978481605,2.747255171501582
68.00830612999471,18.03986386414868,58.14770929563387,8551.46065135358,-5.54362660069284,-39.8530250930946,2.084662655036081
68.50830592999466,18.03989978473527,58.148765399682354,8459.088513339722,-25.090364958205484,-31.308292413687656,359.0403993673062
69.00830572999462,18.039883236518836,58.14986318411969,8370.674618638042,-21.60468226247517,-27.072035745299356,356.11293494345176
69.50830552999457,18.039796683859837,58.15100736814944,8288.298894984118,-14.703256492092445,-24.153116366624506,354.8025316079615
70.00830532999453,18.039654184694093,58.15219412585541,8213.047374721697,-9.762190136432336,-20.828209952776156,354.10021183400664
70.50830512999448,18.039475936604404,58.15341355932678,8143.667471075991,-6.513828523434034,-28.69446912922479,355.46945837931236
71.00830492999444,18.039294459876622,58.154635781721325,8072.448081804362,-6.9912496094800565,-30.06729582583221,355.74213285900424
71.50830472999439,18.039110350143055,58.15586303063655,7999.822381149933,-4.543500536565333,-20.51133146292356,354.7108122285165
72.00830452999435,18.038904931774315,58.15711962807037,7932.434999840695,-41.19321803512514,-27.478507986125027,356.67907839862323
72.5083043299943,18.038721456567895,58.1583789333144,7862.813405890945,-42.45261567797942,-29.856929686820806,0.1662007178359283
73.00830412999426,18.038572060355737,58.159637503013016,7789.202717904916,-28.413327195757,-21.566180045805186,353.4662083532997
73.50830392999421,18.03836108790649,58.16092529908745,7719.862820971951,6.378901450674934,-17.080579532153767,352.466104146032
74.00830372999417,18.03814290309334,58.16225017367961,7659.614314023498,11.389156456764121,-12.92865359242531,354.5091263882665
74.50830352999412,18.037946832548062,58.16360493528545,7607.428284085411,9.103296523840609,-20.77099210281414,353.8446088804646
75.00830332999408,18.0377464786508,58.16496876158296,7556.267864433119,-14.49432710517694,-12.372891728490782,353.68807794893655
75.50830312999403,18.037492459655805,58.166352294690384,7512.4579023069355,-35.979841065601114,-8.115008395460967,351.35652838516745
76.00830292999399,18.03713132006546,58.16774638647782,7476.432113197151,-28.824245605000048,-4.79220103930286,348.2919297720375
76.50830272999394,18.036683478358906,58.16914393219682,7446.866245792053,-19.912890072773365,-12.285923068832421,351.3768997210238
77.0083025299939,18.036221585013454,58.1705457040115,7417.17560283292,-13.73198820496108,-3.681891353026366,348.6894413218331
77.50830232999385,18.035720476688663,58.17195681803246,7395.037280290756,-8.473455953786326,0.9419029070080429,347.92466848172444
78.00830212999381,18.035191463426475,58.17337074873018,7381.151372251278,-5.310503275617566,-6.942715568964634,348.8698899167909
78.50830192999376,18.03465738598186,58.174785158666545,7367.520914756513,-3.5410872454948206,2.1778087046220835,348.22156594693973
79.00830172999372,18.0341141767775,58.17620061821647,7359.344686800796,-2.33878141730397,-5.250976517692259,348.6075570706152
79.50830152999367,18.033563096821084,58.177616378284064,7351.384974702368,-24.078463466659244,3.113376621944795,346.4346356404896
80.00830132999363,18.0329527636777,58.179024096940296,7350.414828443447,-19.85632445277213,8.036859069959114,344.0822808005916
80.50830112999358,18.03228518891083,58.180418462071344,7356.81068191807,-13.290203423847366,0.3207309374706387,346.279164209197
81.00830092999354,18.031601146988898,58.181811909986166,7363.519792181415,-31.856276785968607,8.090032527306581,342.78970734707985
81.5083007299935,18.03084474114155,58.18318665317913,7376.443669393668,-25.406797919760063,12.626281084238293,339.8386383248839
82.00830052999345,18.030023460736217,58.18453576332894,7396.039094325105,-16.81886161129163,5.1674178732040374,342.65893256451784
82.5083003299934,18.029191029467963,58.18588181602875,7415.563620468209,-11.665806671234336,13.933043617746216,340.46434845483043
83.00830012999336,18.028337333011326,58.187206423462065,7442.4748986959785,-7.923798045686358,18.565385802607818,339.6437686221791
83.50829992999331,18.027474591401074,58.18850366978397,7476.829844201482,-5.024570918414289,10.704185302282848,340.6294566955158
84.00829972999327,18.02661058849558,58.18980101528858,7508.493036427063,-3.2819396975071737,6.476863391785276,340.9744042094244
84.50829952999322,18.025746110509484,58.19110595825052,7533.5647815277225,-2.288472003515923,3.757186881105578,341.0772913186923
85.00829932999318,18.024880222721983,58.19241895687352,7551.670920392222,-1.6808177361501448,1.147023188035207,341.12073014432656
85.50829912999313,18.024013354009444,58.19373814480361,7562.753401192886,-1.2781405572011604,-1.4571409651298821,341.1399764328759
86.00829892999309,18.023146559035858,58.195059559900415,7569.410042988244,-0.9797804322982135,8.960967522174972,340.89388806308415
86.50829872999304,18.02228005749826,58.19637819440284,7580.328026631457,-0.7059472074400864,1.6639201026617163,340.9697097913342
87.008298529993,18.021413006295244,58.197697442080496,7590.858441177321,-0.5236588847260212,10.774760972387302,340.8569128446263
87.50829832999295,18.02055294225705,58.19900426748448,7608.521647093168,-0.36959463152050875,15.406963971179657,340.8094940724718
88.00829812999291,18.019702441834173,58.20029716364167,7632.610059388555,34.2699680269489,7.634872078308473,339.4585970703871
88.50829792999286,18.018870709383727,58.20159280895213,7656.270594660178,35.1559052501611,14.437229055378632,345.4854074999736
89.00829772999282,18.01813809913562,58.202889309828215,7685.695776112256,23.902115895680936,18.914610368256362,348.1060628545499
89.50829752999277,18.017496630546365,58.20416786332565,7723.675069439131,-6.382587450480952,22.786258575430473,347.862670946636
90.00829732999273,18.016874034158175,58.205418293120964,7768.835380273444,0.6023448812086974,26.589915055228968,346.1485433694357
90.50829712999268,18.016263215127278,58.2066427915977,7819.474922550041,3.5834667904291906,18.374357311009767,345.1528343592626
91.00829692999264,18.01565762616667,58.20786209137203,7870.17243086172,2.573117498755818,26.834257914099435,345.6363797595822
91.5082967299926,18.015066640806804,58.20906235218998,7924.7686881621485,1.6881506964940658,20.15725707492071,345.3963426114939
92.00829652999255,18.01448024755863,58.2102559051164,7979.130387952397,1.2141354493478218,28.57151994972925,345.6236894715725
92.5082963299925,18.013906275902286,58.211429104937906,8037.170163308564,0.7937406812247176,22.097979574455003,345.51332922903583
93.00829612999246,18.013335730996808,58.21259665349133,8095.091751467863,0.5721782988397137,30.25545929841313,345.61750409561336
93.50829592999241,18.01277754464727,58.213741296514044,8156.366995413861,0.3737788553665009,24.09523049951061,345.56812569778447
94.00829572999237,18.012221641070283,58.214874086544576,8217.913187120203,-21.529653179839293,31.092304788059305,343.48568559244416
94.50829552999232,18.011649206629446,58.21598300813502,8281.874441710863,-18.401075223274596,26.00488876762868,345.7320306776831
95.00829532999228,18.01106378506315,58.21707860636945,8345.810524373237,-49.53580146114374,31.942243374637865,340.14305359968256
95.50829512999223,18.01043686210321,58.21815027606088,8410.9636734381,-41.20138005237795,27.54831832768655,345.40343495968744
96.00829492999219,18.009808798738415,58.21922558865213,8474.481609939417,-31.16819772775252,33.302305049863406,340.05932578801725
96.50829472999214,18.00915289461288,58.22027852824,8540.52864093437,-2.5459392060404213,38.655435563500205,337.62818408396373
97.0082945299921,18.00851379521695,58.221283192170276,8613.020598796187,5.99542083773733,42.980936169914315,339.64897242955226
97.50829432999205,18.00791518049882,58.22224351198706,8690.805869592987,5.630524542717074,35.21985415409183,339.95127353458173
98.00829412999201,18.007327721203016,58.22318917268766,8768.78799980017,5.604511933769106,41.48176748556633,341.3508468871007
98.50829392999196,18.006763018052855,58.22410958215939,8848.905853278915,4.278006307347949,37.90871525438744,341.4831240329903
99.00829372999192,18.006201138673312,58.22502683399017,8928.28410915682,3.376795654467329,30.224227195741754,341.0618896435015
99.50829352999187,18.005628912145358,58.225952495346576,9004.291694998814,-17.307644917447465,37.30956203714685,339.6348523760086
100.00829332999183,18.00504203414636,58.226850825858534,9081.732025635803,-38.794055347331266,46.32777879386371,333.85599671949416
100.50829312999178,18.00441828466847,58.227705536573865,9161.918639572737,-31.381227855779283,42.254315647055336,337.47740307124224
101.00829292999174,18.00378183195287,58.22855070739459,9241.709272256596,-21.312576123075203,34.29076315132678,342.0796957250403
101.5082927299917,18.00315441343037,58.22941712047878,9317.208054456765,-15.8073784468879,28.40565883531797,343.9169626065278
102.00829252999165,18.00253727963926,58.23030467159633,9387.431541523192,-39.31202471965614,31.33694017509608,341.35064917190186
102.5082923299916,18.00191540004483,58.23119137581679,9455.557714473198,-53.70845139635992,35.68625445596725,335.6918722699202
103.00829212999156,18.00126517748462,58.232067591198195,9523.071313535867,-38.381936215212576,39.2350679543788,331.5519564663859
103.50829192999151,18.00058676458553,58.23292314416836,9591.537536587153,-20.953162339577627,37.00232166578695,332.7187772678283
104.00829172999147,17.999892851867106,58.23376498670251,9660.29858855602,-11.641075615266072,28.884878006532176,336.38563280264356
104.50829152999142,17.999187877190387,58.2346249475566,9724.791126851436,4.828564958870157,22.219871871637846,337.12026476055286
105.00829132999138,17.99846461158317,58.235506611626285,9782.416943865512,1.3025724196967845,16.472193781732454,336.57036683792916
105.50829112999133,17.997719668492635,58.236411432497114,9831.211644716872,0.5901865267844327,11.023858125053742,336.4568651336288
106.00829092999129,17.996958846202975,58.23733376051638,9870.868361598184,0.34037847350301076,5.915344298219104,336.41196798508645
106.50829072999124,17.996187617901796,58.2382675052451,9901.439433403453,0.25179525981586065,1.0857228080129615,336.3900375574034
107.0082905299912,17.99540859346878,58.2392097134672,9923.00372809301,0.21729887936479664,-3.6120378815645426,336.3760272959799
107.50829032999115,17.994624120691526,58.24015764280925,9935.596571811597,0.2014552332099902,-8.213503412564037,336.3651010101711
108.00829012999111,17.99383988900201,58.24110465655752,9940.638427521892,-15.286615899296207,-3.4568710974479235,335.2606730090847
108.50828992999107,17.993052180702943,58.24205397913612,9942.150892467893,-14.754900789845557,-1.1134070961746854,335.7896849159112
109.00828972999102,17.99225926428231,58.243010240626695,9940.679140701548,-9.159977395009445,-8.412253998265934,337.5921314276844
109.50828952999098,17.9914730408425,58.243970764770644,9933.202969733522,-6.354896354080416,-14.831510267475226,338.45806687297306
110.00828932999093,17.99070279751754,58.24492840424276,9917.214960294888,-5.173764104958107,-20.419588894214588,338.9341205579514
110.50828912999089,17.98995188453911,58.24587655453314,9893.110341545276,-23.89076723278437,-25.55343214630241,339.12748349373214
111.00828892999084,17.989227790545204,58.24681345105602,9863.131276874221,-54.40067137080084,-28.91339761450117,342.99757677832554
111.5082887299908,17.98856199569197,58.24774525674292,9827.188500684339,-41.5791172222494,-29.69349103491193,349.1114625817414
112.00828852999075,17.98796658289407,58.24867121580889,9784.63184923271,-28.983828231976027,-32.07190507977223,350.81983316761966
112.5082883299907,17.98744573548194,58.24958371167816,9733.365575708225,-24.155647824250018,-35.50055174197353,352.0297503011099
113.00828812999066,17.98699657267652,58.25047394833229,9672.909126965797,-21.720339932639405,-40.875361727264135,354.0667197870626
113.50828792999062,17.986617354906432,58.25133090136957,9603.220223419745,-20.07872065470138,-45.21740088416573,355.47100753788385
114.00828772999057,17.98628819991784,58.25216123144895,9526.098495442255,-15.73606046584454,-36.49509401017556,350.7423485571268
114.50828752999053,17.985953510376614,58.253005612280504,9447.436369250348,-12.179854112696352,-35.00851170045777,349.16901613772217
115.00828732999048,17.985603903945623,58.253870510874265,9368.44518964127,-8.847745216798918,-31.14935253170752,347.8450749561927
115.50828712999044,17.985230934923397,58.25476496612005,9290.99349474291,-6.631550382509888,-33.2024415759516,347.70764568146166
116.00828692999039,17.98484651636978,58.2556796916538,9213.189877457402,14.169427958466995,-29.671104850427525,348.9656949987266
116.50828672999035,17.98447074109988,58.2566276123277,9136.893887765542,16.006278727505602,-33.20831799585333,347.5016128051184
117.0082865299903,17.984096971775312,58.25759222178065,9059.673320026017,12.373154784304456,-40.873312383274545,345.51136125571463
117.50828632999026,17.983716317180345,58.258541389501374,8977.505991147593,9.909967839549038,-44.5093305767152,345.0504009675781
118.00828612999021,17.983331376379258,58.25946801042097,8889.81936984897,7.893274840645955,-44.58448551543863,345.57019944182446
118.50828592999017,17.98294279802693,58.260391695736665,8798.87749935354,5.693000426768908,-34.12226756899857,347.5698777626768
119.00828572999012,17.982548245402587,58.261348783397985,8709.909347083685,4.3997349771018825,-39.15562549130002,347.3290946771341
119.50828552999008,17.982150784268896,58.2623146430583,8619.054543043212,3.4037959839651815,-44.558359334332415,346.98433669962117
120.00828532999003,17.981751856629113,58.263279173363195,8524.741504862148,2.4482686976045596,-36.08232460415078,347.7053722919674
120.50828512998999,17.981344875144885,58.26426787950611,8430.282919055111,1.9146637013417727,-43.60004083380695,347.42965113220737
121.00828492998994,17.980938833809493,58.26525155793252,8332.122349187377,1.4555734206270303,-44.50762646520142,347.47452146451656
121.5082847299899,17.980535390169397,58.266234863332315,8231.072026678026,22.093001740053754,-35.63689882250641,349.87970642805317
122.00828452998985,17.98015303538442,58.26725734340948,8131.9333328769835,20.75419335547993,-42.19221223525641,346.5323001880107
122.5082843299898,17.979767794224838,58.268282736613784,8030.199974590713,15.229111293411755,-44.37215637034267,346.0978293109783
123.00828412998976,17.97937923771671,58.269309500961285,7925.565613754485,32.3477627804458,-35.81924022502775,351.48181539246383
123.50828392998972,17.979054489031274,58.2703847308845,7824.0713746685215,48.09365332390085,-32.59171725517032,356.13189977824607
124.00828372998967,17.978850478560823,58.271507606445894,7726.35364710272,60.39632803341266,-33.45263139964046,357.08938800217203
124.50828352998963,17.97875538308194,58.27266154964323,7630.34429116939,35.7520060719625,-32.34388050870113,359.6320316208836
125.00828332998958,17.978752809375717,58.27385899633817,7539.270392441029,-1.7745233319284923,-26.469901348630167,2.20751031278984
125.50828312998954,17.97877341082836,58.275100538076906,7453.914968164471,-5.695818124554032,-33.830239451649376,2.5066019653363756
126.00828292998949,17.97879282961834,58.2763514108429,7368.020751410696,-27.09290189443307,-25.53285155635841,358.8585691137035
126.50828272998945,17.978769955228266,58.277630856382125,7285.420565194998,-23.116097317609533,-31.86240715862939,1.9965718401022698
127.0082825299894,17.978743899405803,58.27891780080369,7201.861272763485,-15.852880345550624,-23.126492672712477,358.1318975342852
127.50828232998936,17.978668046798013,58.28024054093189,7124.146350285575,-38.94843946616375,-23.352963750397063,356.34628593273425
128.0082821299893,17.97853717366606,58.28158319934324,7049.0046603014325,-31.06645319629518,-28.580639941974226,0.16040242437300023
128.50828192998927,17.978406993668177,58.28292972474094,6972.400177046416,-21.181784112183113,-20.042336532341615,355.18931091070493
129.00828172998922,17.978205987020573,58.2843102104433,6903.83568787972,-14.419244398168559,-15.11320006996262,353.21557340302974
129.50828152998918,17.977910213154715,58.28572292223831,6847.84801327284,-51.68076088423795,-11.132734654273712,349.9559521672934
130.00828132998913,17.977451906170515,58.2871433643359,6800.247289765004,-50.2504083236544,-9.06078241877412,344.2873991786319
130.5082811299891,17.976848977819884,58.28856275756226,6757.44143128632,-35.20167429141731,-15.660701222325654,349.4630822622452
131.00828092998904,17.97620458582096,58.28998232153234,6714.94878243354,-70.19311131451042,-9.86226604480713,341.17628122670465
131.508280729989,17.975386111225674,58.29138371328979,6675.407491536141,-61.77047029573369,-8.710128080004035,334.9026732726604
132.00828052998895,17.974374462406097,58.29275524780786,6639.258041348264,-65.84214603507219,-9.761317559437847,335.53265186085116
132.5082803299889,17.973227987970816,58.294104298045944,6605.412048945165,-47.8934007343731,-6.243847794505541,329.2094043995769
133.00828012998886,17.971907913479775,58.29541623649861,6577.972934528858,-55.823233676527984,-5.386960306524784,327.8524424104476
133.50827992998882,17.9704943497783,58.29670543375149,6553.034040543089,-41.781955204200734,-10.193620937773328,333.3098632928316
134.00827972998877,17.969119244871827,58.29800430572959,6523.269832371578,-29.809490838017457,-13.755746116659008,335.2696125259454
134.50827952998873,17.967762237028538,58.29930395829458,6489.803546476847,-68.5085602580606,-6.783847317253998,326.49108327265435
135.00827932998868,17.966255776425616,58.300562602552034,6459.382266115549,-60.16481655022211,-5.330483366395273,320.05831862510485
135.50827912998864,17.964567871476635,58.30176088691602,6434.1653118709355,-40.700905248359845,-2.5892852932617862,316.65473302120284
136.0082789299886,17.962759960337575,58.30291469246838,6415.266745866582,-27.008755524072225,-8.83261999692762,321.02783255820424
136.50827872998855,17.960957068277846,58.30406623372718,6392.813900050048,-18.25070253162646,-12.61961875900285,322.65987169738344
137.0082785299885,17.959175927242466,58.30522395119014,6365.453409740862,10.18017242351578,-3.205140181588617,321.93659464614564
137.50827832998846,17.957402254827375,58.3063990873089,6347.3624469542565,-9.142516512955998,2.077430734063705,322.12118503283034
138.0082781299884,17.955622414015625,58.30757552103648,6338.581279855943,-9.79520020322664,-5.274050483941409,323.1588782583293
138.50827792998837,17.953838472537857,58.30874923241396,6329.704347528586,-30.86808877541773,2.9989937306309367,319.44182920849016
139.00827772998832,17.951980844988416,58.309887722066605,6328.665346460858,-47.94862538537767,6.903650496330332,315.20485643172316
139.50827752998828,17.950018215771717,58.310963891176236,6335.763132739816,-36.82000745302971,10.020441231820206,311.11129079624953
140.00827732998823,17.947978629446826,58.311970635976195,6352.4503260624115,-25.189987713407007,13.69462593332416,308.76180968292016
140.5082771299882,17.945903873696263,58.31291639308234,6380.036944481689,-16.879503084941128,17.978625390310416,307.33048316695607
141.00827692998814,17.943833274858537,58.31380850181432,6418.846898918939,-11.057965986150087,22.443686581188334,306.5436520205348
141.5082767299881,17.941801652249545,58.314650941522565,6468.562564163402,-7.051220989786174,26.853530399780915,306.1777836824723
142.00827652998805,17.939830559575668,58.31544806959653,6528.6761461671085,-4.354387399499762,31.216359708967524,306.0486139157429
142.508276329988,17.937935921880772,58.31620227819916,6598.629809667608,-2.597763845662319,35.77761558448414,306.0260891199396
143.00827612998796,17.936120822840703,58.316918345421826,6676.79210634175,-1.395759801707692,35.150882006389004,306.2805023533104
143.50827592998792,17.93436568931637,58.31761291092027,6759.8530186560365,22.56553634512959,40.95474773428344,308.17388419424003
144.00827572998787,17.93273756265619,58.318295792835926,6849.363814445525,20.583137164769024,43.32961843837126,310.53045136499895
144.50827552998783,17.931249031580787,58.31895772052569,6945.00039804934,-7.122559757122514,48.8915151948933,311.4267657335851
145.00827532998778,17.929845043521542,58.31958224705893,7045.293999187026,-9.652937213577006,44.4986704712685,311.8311040276669
145.50827512998774,17.928451499525693,58.320201853250815,7144.971508650417,-7.645443112319069,38.83486378676909,312.3148530899732
146.0082749299877,17.92704781901919,58.32083148197281,7241.394772935704,-6.480632672124458,44.92906302323918,310.82033436947427
146.50827472998765,17.925669181359883,58.32144684845374,7338.204766701848,-4.963112800648898,44.58293030683518,310.5576269783171
147.0082745299876,17.92430559546273,58.322053918823485,7434.569328960684,-3.608296876034544,38.39881354359651,310.97149153625514
147.50827432998756,17.922929990769436,58.32266801745003,7528.069983565351,-2.9482258618091115,45.2398371503238,310.30308320232416
148.0082741299875,17.92156953546669,58.323274407952276,7621.306808688847,-2.089973713841249,37.79240752331205,310.62807569545197
148.50827392998747,17.920199496606177,58.3238857519894,7711.957037139532,-1.708390926986559,45.241190566812556,310.23024343548224
149.00827372998742,17.918855950128073,58.32448430567014,7803.598309074685,-1.238161069259365,44.51971679494271,310.2004059241329
149.50827352998738,17.917533390720024,58.32507283719181,7895.893983976651,-0.8863253035708388,42.36143440383317,310.2253367603722
150.00827332998733,17.91622307267176,58.32565563041286,7988.08162274614,-0.6574815911658999,44.78008635276094,310.15261763652796
150.5082731299873,17.914924105774105,58.32623314951506,8080.035406092865,-0.45460845206497724,38.33459210226625,310.2194072328026
151.00827292998724,17.913594943347317,58.326824278768946,8168.03711569655,-0.33585797169911896,32.89404030405537,310.25376213662577
151.5082727299872,17.912228502857676,58.32743221182625,8250.706916980791,-0.2846976211743712,41.833358338529294,310.1823751870828
152.00827252998715,17.910900624922668,58.32801842499267,8335.54053904144,-21.98571626388355,51.26523739680763,307.6535529597852
152.5082723299871,17.90962141417202,58.328560553418576,8424.035125880126,-20.59302047095684,46.52236535689994,309.6898099020102
153.00827212998706,17.908347224107494,58.32909585721697,8512.028786303294,-15.0719483415254,38.20620488724999,312.5081467442256
153.50827192998702,17.90704806828872,58.32965761992052,8595.604922820443,-11.928393218923924,32.278876797727555,313.68959788136095
154.00827172998697,17.905722217797916,58.330249140370235,8673.16813254633,-10.590413257068294,39.80693042509488,311.38980387647996
154.50827152998693,17.904408202974256,58.330833569548105,8750.268874747628,-7.858395374768573,40.30697812416338,310.54229510789173
155.00827132998688,17.90310137663816,58.331412816606395,8826.658989216337,-5.746702311093303,31.962985931976068,311.5424237227701
155.50827112998684,17.901768779971913,58.332008947940786,8898.310941623085,-4.591375950870295,25.527406935837817,312.0312832763229
156.0082709299868,17.900405513102314,58.332625731085436,8963.318885263789,-4.010006517281183,30.334243476300543,311.47369650378306
156.50827072998675,17.899031805575003,58.3332494277139,9025.101627417122,-3.1802142520090895,24.865843087209786,311.67862438334464
157.0082705299867,17.897635936448022,58.33388620825815,9082.105788334555,-2.7028813592120904,17.975503553433196,311.9416331901842
157.50827032998666,17.896215538094985,58.33453811996886,9132.252172360191,-2.4473784289037006,23.795833108389914,311.5733788485705
158.0082701299866,17.89479511927079,58.335190316973126,9181.132859230775,-1.9165414281382116,27.18720371896114,311.274709243315
158.50826992998657,17.89337636920391,58.335841382287946,9229.61527548834,-1.4693288055285054,18.884213876704052,311.46897749655545
159.00826972998652,17.89194724958615,58.336497954388435,9274.63358977671,-1.240547975552341,23.092813677553742,311.316897438138
159.50826952998648,17.890529214517915,58.337147739217805,9320.288946888319,-5.706490748278693,34.82925098600843,310.39142040135755
160.00826932998643,17.88914006414646,58.33778088359351,9369.623702221987,14.147196799658422,39.3022623059771,311.543008581191
160.5082691299864,17.887822427173795,58.33840104189242,9424.337560710812,16.634557876047072,43.745700200319014,314.4358577843653
161.00826892998634,17.886601895906942,58.33900105222633,9485.244029923493,-5.802024874538387,47.513904929598525,314.9114928719665
161.5082687299863,17.88544450426529,58.33956986790506,9550.811126452661,-9.759183057962387,44.7733178170072,314.8181482225521
162.00826852998625,17.88430767055325,58.340123715400104,9617.74919757033,-7.117842616211802,36.068615333255686,315.3107770793332
162.5082683299862,17.883161972533426,58.34068545581385,9682.614314160732,-5.9951251780231525,27.98419016734931,315.81159495936384
163.00826812998616,17.881988413498785,58.34126883440557,9742.399940292236,10.12193426500844,31.31040164152155,316.2778406886296
163.50826792998612,17.88081384511507,58.34186232004065,9800.494285551757,33.067308387755574,42.343304226716555,320.40976587544503
164.00826772998607,17.87970939960074,58.34245577811499,9861.09725599883,28.439844382579185,41.143537668243994,319.20605786515574
164.50826752998603,17.878647062800944,58.34304970582651,9922.689598597974,18.157071240339054,33.150853935649415,315.17364326120156
165.00826732998598,17.87759159384518,58.343642928667904,9983.328309357594,-3.07797989220644,34.65782711918262,314.4326579730946
165.50826712998594,17.87654591190664,58.344229369248175,10043.622273962412,-8.432647175265595,38.14022504144449,315.53327879270853
166.0082669299859,17.875502910613978,58.344811412157455,10103.102042529927,-5.1012152851525245,30.33919099017644,316.8826235300163
166.50826672998585,17.874447707061183,58.34540122754325,10159.59546382269,-3.2421619689484333,22.96502414632251,317.5271905131134
167.0082665299858,17.873371185451848,58.346006188417505,10210.520029449419,-2.2767960718615465,17.16056141174491,317.7848978959266
167.50826632998576,17.87227385320419,58.34662624379458,10254.394791310797,-1.7838206737300892,12.186033286886872,317.9006108682841
168.0082661299857,17.871158835150418,58.34725913451494,10290.994814188127,-1.4880657537271478,7.594578220786005,317.9567060257591
168.50826592998567,17.87003000471224,58.34790219759231,10320.33077575678,-1.2801488611398644,3.221016669809781,317.9836420878641
169.00826572998562,17.868893810745256,58.34855135428366,10343.315541147236,-13.899721167091755,6.933854663245798,317.0058290542272
169.50826552998558,17.867750480781044,58.349200442058006,10363.703807905242,-35.122751601837614,18.29835192361581,312.64982638030995
170.00826532998553,17.86658728633052,58.349837745225756,10384.585661334417,-32.396876345499734,19.877585326120577,312.09198850875504
170.5082651299855,17.865405725909554,58.35046881223118,10405.448672152368,-10.127231178841726,12.69802020400301,315.76960108886016
171.00826492998544,17.864214132109797,58.351104592454234,10424.541859072746,-1.9797652908164325,4.360073129358561,316.3239856145889
171.5082647299854,17.86301152968265,58.351747491690965,10439.472616869101,12.6676523333566,5.560694084345755,316.9339561844617
172.00826452998535,17.861804158231823,58.35239884065316,10452.158439692734,34.251857598470934,16.35582182759509,320.7463615319665
172.5082643299853,17.86062851026225,58.35306252307928,10466.356027438098,31.007460895549467,16.72868033942623,320.726742968011
173.00826412998526,17.859477592138315,58.35373480622815,10481.301706406486,19.683781020928823,9.210128425506898,317.31839345478613
173.50826392998522,17.858320619948024,58.35441206453498,10494.443733542348,28.11924827069359,9.206748659241267,318.38036208742824
174.00826372998517,17.857168015152702,58.35509898621104,10506.821619974935,44.87844674289456,17.495831562408206,324.8582939291802
174.50826352998513,17.856058896564363,58.355802726419185,10520.806617258177,37.06402222777415,16.847971349811743,325.03102057074494
175.00826332998508,17.85497952401648,58.35651912494477,10535.638059725368,37.764752694685534,16.38406635513017,325.90377906074485
175.50826312998504,17.853931680187912,58.357246674586854,10551.31040281351,34.091019612496424,15.879851748188255,325.91596415542904
176.008262929985,17.852905443526375,58.35798295280579,10567.238687828298,22.001015291679224,8.463728349858474,322.15064658967646
176.50826272998495,17.851873748801708,58.35872311304321,10581.226669891423,1.7186646010347244,0.7563981999536492,319.8193952944178
177.0082625299849,17.85083437965726,58.359463743798,10590.98598662324,-7.518305130216203,-5.536309452772753,321.56022633634285
177.50826232998486,17.8497917650113,58.360207873054996,10594.34266984597,12.720210047120844,-2.5496114038123205,323.23145293003716
178.00826212998481,17.84874722029145,58.36095858620534,10595.212468145488,16.77542820223234,9.228206808831183,326.1681595872888
178.50826192998477,17.847719001367466,58.361716547352835,10598.206533380056,9.32124480720833,10.097248679331816,326.72743833106927
179.00826172998472,17.846701367381115,58.362477162770226,10602.955417271216,-7.681283431851214,10.568117289095847,325.5794758196259
179.50826152998468,17.845681823669814,58.36323600644414,10609.336219258359,-13.455318781353165,10.977735154125197,325.57821398590744
180.00826132998463,17.84465327138792,58.363992825120974,10616.751288390702,-22.91113930130164,11.186615997828753,324.08927956801926
180.5082611299846,17.843607371961124,58.3647456516378,10625.329695402057,-24.00000008883145,11.891826786789048,323.4109760775175
181.00826092998454,17.84254780951887,58.365497550582376,10633.846739521034,-15.649115008032238,4.112857771262093,325.6592642283528
181.5082607299845,17.841482942165573,58.36625265118694,10640.751521995471,-27.07973963450724,4.041664173551607,324.2944534636761
182.00826052998445,17.8404074411229,58.367008812932,10646.478011546706,-28.118256665970154,7.63443725270854,322.54891800942363
182.5082603299844,17.839317713957175,58.36776518416556,10651.464998682288,-34.03918761951297,0.5221265342362277,325.33517677521615
183.00826012998436,17.838231086485283,58.36853035118545,10653.332251755077,-34.16955326792154,-5.419299778192163,329.7487207094732
183.50825992998432,17.83717366807256,58.36931056233367,10649.59827788533,-24.69000132618797,-10.842736487813532,332.4570185157337
184.00825972998427,17.83615373106634,58.37010144165917,10638.931576950978,-20.073647143018558,-16.064426710199008,333.82131541662994
184.50825952998423,17.835175017203962,58.37089682049183,10620.612414283025,-17.544487750924503,-21.05554987574711,334.73099813888615
185.00825932998418,17.83423664703992,58.37169288055191,10594.450875567476,-15.81461435661523,-25.943632542780712,335.47069478609643
185.50825912998414,17.833338361224385,58.37248592166819,10560.349690143916,-14.510300392544075,-30.734789957674405,336.13783905093027
186.0082589299841,17.832481607269617,58.3732710498447,10518.292010395406,-13.460195984968134,-35.43249192374363,336.77812031214415
186.50825872998405,17.831669546874448,58.37404302778614,10468.009186288808,-12.606236302130148,-40.09738863336924,337.43550077695113
187.008258529984,17.830904057998126,58.37479672090492,10409.250454223067,-1.35153730625793,-35.74200932365617,336.5141163186625
187.50825832998396,17.83015116460564,58.37555020766738,10345.667001446898,1.5551956576482704,-32.67593782034226,334.8979220058977
188.00825812998391,17.82939575615566,58.3763111276116,10279.462796258891,-0.38767752905440533,-40.44846916687739,334.1143224972403
188.50825792998387,17.828644888790446,58.37706901714256,10209.570780702183,-19.51154194377559,-37.819186982642435,331.95646231122
189.00825772998382,17.82788111595671,58.3778335489655,10137.50205295482,-19.054389028236,-35.037799594596315,331.74410943890405
189.50825752998378,17.827105040621895,58.3786064424005,10063.004074396911,-13.587050754520835,-42.747432830017175,334.705971617586
190.00825732998373,17.826344689794894,58.37937514355346,9983.567106936453,8.205369381489415,-38.12688250074403,335.2260333121853
190.5082571299837,17.82558076004357,58.380166705135096,9903.499086250136,0.003584359413943979,-27.765008744312766,335.6983722829039
191.00825692998365,17.824787939380602,58.38100254769805,9827.690925775185,-1.62673612337328,-22.484029564863544,334.82666794363234
191.5082567299836,17.82396834375257,58.381877303709345,9755.922535810412,23.68637428980592,-19.592429628214898,335.93900826297624
192.00825652998356,17.823167219495648,58.38280101235048,9689.426575458885,42.91649681038137,-17.85566452351287,340.0351919620207
192.5082563299835,17.822436489885746,58.3837739343058,9627.091964650655,57.720446027003014,-18.60545773806951,344.0308494572944
193.00825612998347,17.821795282266603,58.38478438518848,9566.68667939137,68.87883659778446,-21.22271937019257,345.27393103810425
193.50825592998342,17.82123307400344,58.38581902280954,9506.216431236882,75.72741230337114,-22.419378488943277,347.6143889496469
194.00825572998338,17.820746436762594,58.38687220679672,9444.828268013745,79.83988138822531,-23.440632911964894,350.1991302903345
194.50825552998333,17.820334071975527,58.38793941010292,9382.238923407118,67.65286391065231,-25.628283766179255,344.337057346243
195.00825532998329,17.819926126742747,58.389009214953326,9317.612749195057,50.36668737184669,-29.323239465634114,339.8674139684486
195.50825512998324,17.819482028421852,58.39006678635629,9249.656093542573,39.8332343319089,-32.74545100952584,338.20995172729806
196.0082549299832,17.81901225020765,58.39111134317805,9178.726462230563,30.007783530675507,-25.362627356721106,345.86139170374287
196.50825472998315,17.818566477456983,58.39217904942792,9109.534077228409,22.98221474525824,-28.972008699341636,345.58333266238793
197.0082545299831,17.818129184395396,58.3932616718132,9040.201663584585,18.83599093401422,-26.710451107962808,347.43634921970516
197.50825432998306,17.81769535355658,58.394356667848434,8970.16390256128,14.407280154851852,-33.63341815289587,345.58660902926056
198.00825412998302,17.81725363804964,58.39544131753691,8895.88372739676,11.241276768936686,-37.250414373810365,345.11836015956766
198.50825392998297,17.816805050086693,58.39651526784495,8817.28110203679,8.216079583270114,-27.129460079632736,347.5959724322315
199.00825372998293,17.816354623020253,58.39761724635688,8740.405562945269,6.28897085744764,-32.85591005817096,347.145691609491
199.50825352998288,17.815902118557414,58.39872350828819,8661.335352163616,4.846654126826054,-37.42094046387572,346.8239064441529
200.00825332998284,17.815448935345472,58.3998193662337,8577.699288655043,3.6731529378848546,-35.41708740827438,347.21805061004375
200.5082531299828,17.814986445441132,58.40092759619632,8493.530966198052,-18.328628705424375,-26.85118524925503,346.2106442695687
201.00825292998275,17.814472984356307,58.4020691810368,8413.881980998958,-3.5037416348280743,-23.32647714982735,344.948669055845
201.5082527299827,17.81392058485654,58.40324849438736,8341.052497272,-12.030501851181073,-20.316263537819424,344.9042302035106
202.00825252998266,17.813326447835717,58.40445926594062,8275.458254527804,2.1609140789301304,-17.161109903869082,344.4324064189128
202.5082523299826,17.812711658039504,58.40569687556603,8215.088056323339,6.394553356639593,-24.960064533630636,343.8611928961282
203.00825212998257,17.812091830765382,58.406934753203586,8152.224845316384,5.461821857773414,-29.031916171767918,343.8029379770075
203.50825192998252,17.811470397244094,58.408156798451195,8083.476391450954,4.538408258373764,-31.560090101277535,343.86353751502475
204.00825172998248,17.810849483274605,58.40936125363604,8008.354917699678,3.7068333210318225,-33.996613010234306,343.9004847883869
204.50825152998243,17.810231791439804,58.410545866712596,7926.765593703318,2.998134235361662,-36.44621196383779,343.9198418362567
205.0082513299824,17.809619791590375,58.411708500680135,7838.674598638362,2.400765606890551,-38.49770077811338,343.9528509909595
205.50825112998234,17.809015620445056,58.41284783284874,7744.529152806455,1.9225335109343853,-41.022998617529154,343.9566446762563
206.0082509299823,17.808410012221703,58.41397566512333,7646.977352326495,-20.418450769759527,-31.222980710799757,342.00205809241754
206.50825072998225,17.807727616743477,58.41513725131453,7554.956221717706,-16.50237359263188,-25.690072845662005,339.70229007467805
207.0082505299822,17.80694769970031,58.41633749365495,7472.0772157407855,-10.955356505609723,-21.67132340032552,338.706611646096
207.50825032998216,17.806089926043242,58.4175737548016,7399.401046038705,-7.161525257149239,-17.54707814909874,338.1927892291422
208.00825012998212,17.805181552122974,58.41883731703979,7334.814944779212,-4.6700030904029335,-25.353787519998587,339.21006176397503
208.50824992998207,17.804273733781347,58.42009744719364,7267.407797024561,-3.0112609086362587,-29.529750487844417,339.59866645108497
209.00824972998203,17.803383708956183,58.42133887526949,7193.12950515715,-2.0468061266416084,-32.34687672767117,339.74018409028275
209.50824952998198,17.802501321203707,58.42257262313348,7114.342171054333,-1.3683167225293986,-21.58472373811025,339.3678727927087
210.00824932998194,17.801593564726367,58.4238374663642,7040.2918851858885,-0.9674838691931363,-28.707848588631023,339.50929871489984
210.5082491299819,17.800677993183694,58.42511265727758,6965.881682785937,-0.6497696389634985,-19.07399083721946,339.35589454445443
211.00824892998185,17.799738379965834,58.426419168253865,6897.2462177121615,-0.455123950445122,-26.307955313251394,339.42378668771164
211.5082487299818,17.798798226119384,58.42773529374975,6827.693905726514,22.55872516632596,-17.790565257662745,341.48715132256245
212.00824852998176,17.797911511963864,58.42909490200504,6765.392564201608,41.49619533060626,-13.578182002067264,344.94869636958464
212.5082483299817,17.797161277383204,58.430505392662965,6713.118614640257,31.51646585012808,-9.629716475655988,348.91187024151463
213.00824812998167,17.79654645504214,58.43195631126041,6672.682703706024,21.387776339878826,-5.3639988534241265,351.2395430012707
213.50824792998162,17.796020959052036,58.43343139433094,6646.026368523056,1.3964258083751317,-0.11296535033215974,351.5284655072943
214.00824772998158,17.795514898834917,58.43491858666286,6628.974437849021,2.9993564351281927,-8.068040075654942,350.48402097350856
214.50824752998153,17.79501244973885,58.436406913334395,6608.4254162912075,1.5928696331679921,-12.323381935961532,350.15584647011457
215.0082473299815,17.794511286851584,58.43789357749014,6583.540695913259,0.9044612725980834,-1.672182342264805,350.297848969953
215.50824712998144,17.79399675957844,58.43938674888609,6569.369069803155,-26.548098468502047,4.181032855525027,348.612025610367
216.0082469299814,17.79338880228288,58.44086561244545,6567.369390360171,-45.6504972095796,7.4078141976039324,344.64919778111056
216.50824672998135,17.792643179926635,58.442315527925636,6574.067900594884,-35.66951975925281,10.396680178570811,340.44201274749906
217.0082465299813,17.79177088735598,58.44372661520626,6590.718473239884,-24.631401583793604,13.883523595784432,338.04213728682487
217.50824632998126,17.790814772358235,58.44509353702284,6618.428770761681,-16.674297128737933,18.076070812371466,336.53471613851207
218.00824612998122,17.78981075316986,58.44641836190784,6655.516679155854,-52.785302282268574,11.457406712213702,340.0314181146885
218.50824592998117,17.788786437932398,58.447735523067145,6692.421693091652,-47.34832182520874,17.120672191290932,331.9534470714021
219.00824572998113,17.78766891642529,58.44901551418122,6733.865363420901,-9.040532152125564,21.518900336917277,330.2459610936073
219.50824552998108,17.786527821776936,58.45024677067563,6785.11172176382,-17.028556783944243,26.39001350358616,330.5874768728339
220.00824532998104,17.785382275664595,58.45142321941281,6845.8693497459235,4.113258660996719,30.378386703062056,330.5646167763363
220.508245129981,17.784284097795044,58.45255041629215,6915.303965070713,7.9128380318716145,35.179477171455474,332.4465860941306
221.00824492998095,17.783268197416074,58.453631578949064,6993.1673209609335,30.04668824324854,38.58362194997752,335.2389486098104
221.5082447299809,17.782383321939776,58.45467738927737,7078.362207973007,27.059342141243928,42.466258704804844,339.8070044246724
222.00824452998086,17.78160800081652,58.455690589729414,7168.657314739413,18.11435886522972,34.81259456582536,336.4514168403699
222.5082443299808,17.780847048570276,58.45669886999802,7257.828421077392,37.213012453726364,42.05529020625212,342.1350544318289
223.00824412998077,17.780198141273633,58.457678836305284,7350.877286752573,16.948323980588167,47.04356807718272,346.5464134013586
223.50824392998072,17.779643863822155,58.458617241486316,7448.571192750523,6.026335026279698,40.37225404853231,344.57694146139244
224.00824372998068,17.779091417333238,58.459563477652424,7543.806588798863,2.620162702839648,34.86434112725289,343.51814128533
224.50824352998063,17.77852894475242,58.46052728421842,7634.789631326983,1.2854833967624075,44.158933802412804,343.63649252642216
225.0082433299806,17.777989039781147,58.46146759896391,7727.81477374431,23.23927358833241,49.299791637143656,345.7233041493598
225.50824312998054,17.77751808827812,58.46236756212163,7824.736187194804,20.033237499370003,43.060390631228934,342.63019757861673
226.0082429299805,17.777070540058975,58.46325362267969,7921.737197524167,15.639591285678009,46.84240412047079,345.0173126450758
226.50824272998045,17.77664706527513,58.4641194199492,8019.350173822394,-5.087080020686762,49.393180925738534,344.48167104413113
227.0082425299804,17.77623843509685,58.46494970484988,8118.7494188924165,-6.439561060804488,46.385588601155014,345.6947953216609
227.50824232998036,17.775829831250235,58.46577775421564,8216.494903116998,-4.376791774933956,39.479541598694205,346.5253036367033
228.00824212998032,17.775417131025332,58.46662513067308,8309.938682166669,-3.423299867382266,44.61182486136371,345.94574719615304
228.50824192998027,17.775006039399912,58.467468952947634,8401.859386702636,-2.5674950772685072,45.004388831816534,345.8207593623628
229.00824172998023,17.77459795995265,58.46830419377219,8493.403977779451,-1.9034335426815738,44.74886603636599,345.75702831543794
229.50824152998018,17.774190391578763,58.46913753266183,8584.100919245697,-1.3569451569948072,38.826910855055694,345.9203442254144
230.00824132998014,17.77377416538991,58.46999187212892,8670.838567816982,-1.037609436730863,33.09913361172125,346.0277215699417
230.5082411299801,17.77334376583803,58.47088057821602,8750.82775665654,-0.8510160749867439,28.42547777464928,346.08238601933004
231.00824092998005,17.77289935486385,58.47180333694237,8822.726536112068,-0.7283325739213418,23.848530071052362,346.1232702587605
231.50824072998,17.77244628527483,58.47275021174511,8886.713512024033,-24.144297456785868,19.110168075195762,346.3073587985553
