Time,Longitude,Latitude,Altitude,Roll (deg),Pitch (deg),Yaw (deg)
1.0083329300000023,17.99999965320606,58.79704867996636,7014.41261700317,0.0026931920909447986,13.352380855181163,180.00247748726315
1.5083327299999973,17.99999922849458,58.79563515435331,7037.489621433244,0.005115254342643812,17.305550306153457,180.00527232232034
2.0083325299999926,17.999998634272835,58.79426436440046,7070.682559119129,0.007776269620741303,21.213184331715034,180.00885773378062
2.508332330000001,17.999997868356846,58.792940704941145,7113.322927627597,0.01018909617061276,25.47973579577297,180.01314183059688
3.008332130000009,17.999996930710516,58.79166850180003,7165.074044139112,0.012170821967417195,29.87627390366313,180.01801644771493
3.5083319300000175,17.99999582467395,58.79045185288344,7225.68413693828,0.01373817130617297,34.36371337247149,180.02341563210516
4.008331730000026,17.99999455779823,58.789294953801445,7294.87279494795,0.014948631851629885,38.922887654166296,180.02930337150616
4.508331530000034,17.999993143939424,58.78820363105215,7372.124350939519,0.01576186452995051,42.84475221848357,180.0354124091115
5.0083313300000425,17.999991596861054,58.78717503012411,7455.926929054848,0.01665825983150969,43.65998551187919,180.0404180781821
5.508331130000051,17.99998992042511,58.78619413134828,7543.951173010487,0.01811649381650862,44.142339610752806,180.04527306810394
6.008330930000059,17.99998811465151,58.785248410142714,7634.516982780192,0.019985136366387993,44.40683445681295,180.05004876524657
6.5083307300000675,17.99998617957562,58.7843292177284,7726.477880775995,0.021993430945201415,44.56339948994448,180.05477120699874
7.008330530000076,17.999984115182336,58.7834304065073,7819.082122248334,0.023990520293429813,44.6595930449175,180.05948977245134
7.508330330000084,17.999981921695962,58.78254767507988,7911.835695249948,0.02588127546951724,44.71952359832633,180.06422656154592
8.008330130000092,17.999979599676667,58.78167803920663,8004.411384324923,0.027614295973095098,44.7570868670495,180.0689908045974
8.508329930000047,17.999977149066424,58.78081865962895,8096.518059012706,0.029077245839431463,43.84956727144548,180.07309107366416
9.008329730000002,17.999974565917178,58.779963697037466,8187.537334570617,0.030826048705506096,42.540319303095856,180.07674461762792
9.508329529999957,17.99997184646186,58.779107802090195,8276.827174481545,0.03271556652331406,41.15975514888402,180.08025598543836
10.008329329999912,17.999968988375993,58.77824740561383,8363.929462481467,0.03460465182442364,39.72908205410953,180.08363783076715
10.508329129999867,17.999965990412683,58.77738015788229,8448.525462735191,0.036424339283993946,38.26237370051642,180.0869029847343
11.008328929999822,17.999962852169435,58.77650456373771,8530.392232998303,0.03814833383608707,36.77177603462071,180.09006684993372
11.508328729999777,17.99995957387381,58.775619728472805,8609.374928351677,0.03977042132877149,35.26816732332753,180.09314557812684
12.008328529999732,17.99995615620329,58.7747251796305,8685.369007467914,0.041292103280583484,33.7612063604955,180.09615493622326
12.508328329999687,17.999952600147093,58.77382074339729,8758.3083091272,0.04271654953158316,32.259639831389954,180.09911002592682
13.008328129999642,17.999948906897277,58.77290645739783,8828.156925928259,0.04404588598346016,30.77145413755077,180.10202522181228
13.508327929999597,17.999945077805744,58.77198251907451,8894.90275967128,0.04527972805972054,29.30408340807777,180.10491428886772
14.008327729999552,17.99994111433005,58.771049243590475,8958.553340052,0.0464155576279689,27.8638124071347,180.10778960931583
14.508327529999507,17.99993701787705,58.77010701423493,9019.134419352544,0.04727088019602274,26.467154719369173,180.11070501041027
15.008327329999462,17.99993278953948,58.769156259370305,9076.689538095206,0.04773240355296437,25.108048522800583,180.11370574772667
15.508327129999417,17.999928430063314,58.76819742445422,9131.274965853623,0.04786703716171803,23.789202245442212,180.11678872100293
16.008326929999374,17.999923939926656,58.76723095410645,9182.957015669963,0.047729607026788044,22.513994184293406,180.11994873051876
16.50832672999933,17.99991931940244,58.76625728816954,9231.810544554119,0.04736914191676201,21.285334106386703,180.12317975711585
17.008326529999284,17.999914568574013,58.7652768490312,9277.91796919603,0.046829734353010986,20.105444135960408,180.1264750008836
17.50832632999924,17.999909687345653,58.76429003127791,9321.368259570461,0.046151366041418354,18.975978357448092,180.12982716278208
18.008326129999194,17.9999046754635,58.76329719694485,9362.255779016188,0.04537023849783767,17.89801018209831,180.13322864275122
18.50832592999915,17.999899532532773,58.762298672300204,9400.679158302051,0.04451900905175337,16.8720748279987,180.1366717733248
19.008325729999104,17.999894258031265,58.761294745964356,9436.740216441376,0.043626952962688065,15.898217109085031,180.14014903324957
19.50832552999906,17.999888851319987,58.760285668196616,9470.54293982859,0.04272008143537763,14.97604436056785,180.14365323464034
20.008325329999014,17.99988331165128,58.759271651179695,9502.192530527018,0.04182124289937843,14.104782082381837,180.1471776776025
20.50832512999897,17.999877638174915,58.75825287013266,9531.79453250657,0.04095022894081946,13.28333001962699,180.1507162687173
21.008324929998924,17.999871829942812,58.757229465088066,9559.454042192263,0.04012389959108034,12.510316872881464,180.1542636024202
21.50832472999888,17.999865885912726,58.756201543175536,9585.275006838925,0.0393563359777312,11.784152245141723,180.15781500661592
22.008324529998834,17.999859804951264,58.75516918126703,9609.359611777909,0.03865902240090158,11.103074834332974,180.16136655576642
22.50832432999879,17.99985358583674,58.754132428853445,9631.807755300388,0.038041055182325846,10.465196237816144,180.16491505604705
23.008324129998744,17.999847221430226,58.75309135847917,9652.728858343711,-0.45971461056374274,9.866623419570175,180.12928233588516
23.5083239299987,17.999840820313977,58.752045681278595,9672.134282122788,-0.8278910918061643,9.299991157759601,180.1494265628512
24.008323729998654,17.999834434439826,58.75099569201845,9690.178746803955,-0.8799272088813229,8.784152913053699,180.1672141665362
24.50832352999861,17.999828104357572,58.74994146922822,9706.948045501695,-0.8355914164117689,8.300572665380798,180.1818817012764
25.008323329998564,17.999821850822592,58.74888305993143,9722.522017713833,-0.8045121608993065,7.848574087025466,180.18847291376622
25.50832312999852,17.999815693875163,58.74782048605234,9736.975261461255,-0.8129053982219279,7.4269828302559455,180.1884686581301
26.008322929998474,17.999809655458545,58.7467537544116,9750.378765928075,-0.8479899830716716,7.034815775593799,180.18508913468014
26.50832272999843,17.999803759518795,58.745682862533855,9762.800846524475,-0.8905272237712559,6.670743625945995,180.18042049351718
27.008322529998384,17.999798032379413,58.74460780307583,9774.307851201465,-0.9313859906416077,6.332898292417419,180.1752320069409
27.50832232999834,17.99979250234458,58.743528567797206,9784.963390091167,-0.9681648190264208,6.016984417969853,180.1693250261224
28.008322129998295,17.999787198824745,58.74244515085472,9794.827675577053,-1.0017021719125252,5.723653524043833,180.16241918788876
28.50832192999825,17.999782151989425,58.74135754346574,9803.957790204353,-1.0337973275080974,5.451169650196839,180.15446840523876
29.008321729998205,17.99977739231061,58.74026573540381,9812.407605170427,-1.0650427661060302,5.198193481545983,180.14549646958702
29.50832152999816,17.999772949994117,58.739169726047066,9820.2277233095,-1.0946970688019855,4.963401416371279,180.13560675561422
30.008321329998115,17.999768853999598,58.738069520069516,9827.465577597955,-1.1208485219505686,4.7458115872584745,180.12491553128558
30.50832112999807,17.999765131140986,58.73696512239636,9834.165895272536,-1.1416258067544864,4.5445774685453335,180.11354905393813
31.008320929998025,17.999761805374934,58.735856538682896,9840.370774024817,-1.15600986019598,4.357675830827102,180.10162915484017
31.50832072999798,17.99975889772692,58.73474377573099,9846.119552273942,-1.1647750680419307,4.184081082763373,180.08923335822843
32.00832052999794,17.999756427371,58.73362684191421,9851.448985452631,-1.1709581075113276,4.022748688622414,180.07638342763497
32.50832032999789,17.999754413184874,58.732505747110224,9856.393260167626,-1.178381054979559,3.87270857200264,180.0630475843062
33.00832012999785,17.999752874204532,58.731380502021906,9860.983840098435,-1.1880350321739628,3.733094393748592,180.04922941299466
33.5083199299978,17.99975182929483,58.73025111840705,9865.249671290043,-1.198963572164767,3.603118338195252,180.03504542939734
34.00831972999776,17.999751296784932,58.72911760937163,9869.217428791426,-1.2098463206147034,3.482035511833988,180.0205765749511
34.50831952999771,17.999751294254665,58.72797998956124,9872.911727097595,-1.2200460417149073,3.3691390117146427,180.0058490397537
35.00831932999767,17.999751838316197,58.72683827509777,9876.355236613477,-1.229202182903749,3.2637742943778485,179.99086805600942
35.50831912999762,17.999752944628145,58.72569248368249,9879.568859809346,-1.2375975455393728,3.165334171319847,179.9756487079482
36.00831892999758,17.999754628284226,58.72454263458012,9882.571859089343,-1.2461286258288429,3.0732555487290094,179.96018582642623
36.508318729997534,17.99975690385928,58.72338874826003,9885.38186055101,-1.2547147181780471,2.9870351111559486,179.94448791967716
37.00831852999749,17.99975978512071,58.72223084639387,9888.014998871067,-1.2626697708574188,2.9062112052659534,179.92860440620518
37.508318329997444,17.999763284689713,58.72106895183511,9890.486051926562,-1.2691560518890637,2.830353855562219,179.91257371666865
38.0083181299974,17.999767414092815,58.719903088783475,9892.80863250736,-1.2744856302750873,2.75905155832054,179.89640856093388
38.508317929997354,17.999772184457996,58.718733282765406,9894.995291495035,-1.2802819484157688,2.691919366976359,179.8800779973011
39.00831772999731,17.999777607178444,58.71755956027242,9897.057485101193,-1.2877243708389994,2.6286216886474603,179.8635594595145
39.508317529997264,17.99978369355687,58.71638194829288,9899.00551776023,-1.2954579469107483,2.5688788797010758,179.84690040251277
40.00831732999722,17.999790453745543,58.71520047441782,9900.848719579197,-1.3010739149879083,2.512423615793809,179.8301824373697
40.508317129997174,17.99979789642537,58.71401516729295,9902.595733783928,-1.3044468873041934,2.4589713213625077,179.81341329939897
41.00831692999713,17.999806029152165,58.71282605641728,9904.254514570732,-1.3066160122746204,2.408269774880548,179.79656257404184
41.508316729997084,17.99981485883028,58.71163317199211,9905.83234204461,-1.3087399419934196,2.360098897632925,179.77963259170352
42.00831652999704,17.999824392269076,58.71043654479373,9907.33584867568,-1.3117006113260803,2.3142614445988285,179.76262844869373
42.508316329996994,17.999834636579873,58.70923620604243,9908.771045652258,-1.3159086394640058,2.2705793003494477,179.74555221416355
43.00831612999695,17.99984559920312,58.708032187256244,9910.14334482152,-1.3210118970691824,2.228894008173543,179.72841231979803
43.508315929996904,17.999857287736933,58.70682452026931,9911.457644635373,-1.3265716576717261,2.189054093554273,179.7112124961193
44.00831572999686,17.999869709787543,58.70561323720827,9912.718389127842,-1.3323065910088236,2.1509195688051608,179.69394712584813
44.508315529996814,17.99988287266633,58.704398370187974,9913.929061861727,-1.3383547427051987,2.1132203290294704,179.67667086131044
45.00831532999677,17.999896783255902,58.70317995277666,9915.092493608781,-1.3450338522664536,2.076594077681661,179.65942036192544
45.508315129996724,17.999911448606195,58.701958019697955,9916.211923601702,-1.352390244278198,2.041405624656478,179.64215370863312
46.00831492999668,17.99992687580633,58.70073260567554,9917.290308994425,-1.360131729827662,2.007571758288844,179.62485236864322
46.508314729996634,17.999943071764566,58.69950374541722,9918.330342620857,-1.3676121760400648,1.9750096924876932,179.6075134664566
47.00831452999659,17.99996004283747,58.698271473622334,9919.334491628051,-1.3740742534348243,1.9436422306452505,179.59014290082408
47.508314329996544,17.999977794482383,58.6970358250168,9920.305041183803,-1.3790082068617258,1.913394571952286,179.57274921089675
48.0083141299965,17.99999633119671,58.695796834424776,9921.244144248767,-1.3826570119976742,1.8841917455587118,179.5553331117105
48.508313929996454,18.000015656615282,58.694554536663944,9922.15379292859,-1.3851900881860182,1.8559736075204507,179.53790707885224
49.00831372999641,18.00003577338181,58.69330896644995,9923.035800000975,-1.3861276104196676,1.8286890990915254,179.52050299514158
49.508313529996364,18.00005668299537,58.69206015848488,9923.891857561497,-1.3853133569832732,1.802279717234428,179.50314037675477
50.00831332999632,18.000078385878627,58.69080814746122,9924.72355214122,-1.3830518266656957,1.776691285784346,179.4858302527903
50.508313129996274,18.000100881586587,58.68955296802815,9925.532361546699,-1.3798148504618806,1.7518757163675098,179.46858565826068
51.00831292999623,18.00012416899279,58.68829465471597,9926.319636491498,-1.3757744169748065,1.7277926423982208,179.45142517115204
51.508312729996184,18.000148246363764,58.6870332419237,9927.086611920226,-1.3709556712562296,1.7044022462433082,179.43436461311686
52.00831252999614,18.00017311143801,58.68576876392711,9927.83442523393,-1.3655149008383431,1.681665357937059,179.4174122499911
52.508312329996095,18.00019876162077,58.684501254891295,9928.564133085958,-1.3599210382958926,1.65954408660885,179.40056842533735
53.00831212999605,18.000225194303564,58.683230748843194,9929.276708950907,-1.354764200473605,1.6380053004466357,179.38382987196235
53.508311929996005,18.000252407090894,58.68195727958843,9929.973019785082,-1.3501855801205631,1.617023532889343,179.3671991626806
54.00831172999596,18.00028039760976,58.680680880609735,9930.65380235197,-1.3453314691287284,1.5965802058838234,179.35069301714435
54.508311529995915,18.000309163206136,58.679401585219566,9931.319746680309,-1.3399597297678647,1.5766426188388585,179.33430684294643
55.00831132999587,18.000338701172268,58.67811942665411,9931.971538772465,-1.3350844488627314,1.5571780215455897,179.3180170858223
55.508311129995825,18.00036900940832,58.67683443800956,9932.609829761705,-1.332034484999825,1.5381642158094522,179.30180316328165
56.00831092999578,18.000400086241143,58.67554665179599,9933.235061628002,-1.3287429485415496,1.5196130907788572,179.28571192048076
56.508310729995735,18.000431930038502,58.674256100541825,9933.847748433138,-1.32592247385468,1.5014736038597631,179.26969873972655
57.00831052999569,18.00046453953805,58.672962816483256,9934.448335347748,-1.3238107273637156,1.4837428313355738,179.25375810545796
57.508310329995645,18.000497913620023,58.671666831527176,9935.03719591712,-1.321689882048004,1.4664100553113442,179.23790211218454
58.0083101299956,18.000532051009014,58.67036817733133,9935.614677747899,-1.3190691020101897,1.4494590698621455,179.22212808359333
58.508309929995555,18.00056695017906,58.66906688537671,9936.181135935143,-1.3162183045394462,1.4328717532227462,179.20642633504704
59.00830972999551,18.000602609627872,58.66776298697247,9936.736931075255,-1.3139050139162554,1.416633603078313,179.19078632661234
59.508309529995465,18.00063902801476,58.666456513088335,9937.282358350298,-1.311741597518193,1.4007433546470154,179.17522148353356
60.00830932999542,18.00067587103786,58.66514752621082,9936.99864857483,-0.8308681244579742,-4.28304683916697,179.2626715997195
60.508309129995375,18.000711997428674,58.66383735893795,9932.303027972783,-0.6109402077154646,-7.893388248804787,179.29246330715216
61.00830892999533,18.00074713565169,58.662528553744885,9921.645834295598,-0.46867613252275464,-10.399325348176017,179.29838315002806
61.508308729995285,18.00078138306101,58.661222802581435,9904.860936772558,-0.36812333951427845,-12.7918375787217,179.29978334311073
62.00830852999524,18.000814841846214,58.659921541470624,9881.96016110807,-0.292243842000887,-15.152143916431035,179.29980969616292
62.508308329995195,18.00084759088985,58.658626172846255,9852.977308304913,-0.23267791044083286,-17.482894818146853,179.29947168082197
63.00830812999515,18.00087968871427,58.65733810680319,9817.953242505544,-0.18487169245204185,-19.78320976254222,179.2991643735285
63.508307929995105,18.000911178746783,58.656058729956165,9776.937885155234,-0.1460836895080416,-22.051026895645368,179.29902816142473
64.00830772999507,18.00094209239972,58.65478940029561,9729.989306396763,-0.1144837193098816,-24.284482510052086,179.2991010607634
64.50830752999502,18.000972451448447,58.65353144317176,9677.173045601545,-0.08873998009059303,-26.482121641475576,179.29937963515218
65.00830732999498,18.001002269922825,58.65228614831112,9618.561439852434,-0.06782276336029325,-28.64307317311964,179.2998446573354
65.50830712999493,18.001031555216557,58.65105478053369,9554.22731523428,-0.050904175464514874,-30.83177929009139,179.30055875248945
66.00830692999489,18.001060304528536,58.64983875726656,9484.20482477915,-0.037323395947457746,-33.05798169791886,179.30146249759176
66.50830672999484,18.001088504972053,58.64863971791188,9408.496828800282,-0.026535360225973942,-35.291770115708225,179.3024575730811
67.0083065299948,18.00111613787446,58.64745940714803,9327.104970059414,-0.018055899562034575,-37.531118565604,179.30350041705486
67.50830632999475,18.001143179977745,58.646299653401236,9240.035187695978,-0.011469547165524964,-39.776702989188315,179.3045607502161
68.00830612999471,18.001169603904522,58.64516236995051,9147.299013598287,-0.006427347765102059,-42.029425947638764,179.30561511230803
68.50830592999466,18.00119538039959,58.64404947604892,9048.920385959298,-0.002630715148238752,-44.000357367486394,179.3066230738946
69.00830572999462,18.00122057745961,58.64295865755531,8945.37992555033,8.184336698556552e-05,-44.091369629346964,179.30755688192394
69.50830552999457,18.001245492451677,58.64187757381715,8838.166058704734,0.0018534129778080973,-42.973368008179044,179.3086072186358
70.00830532999453,18.001270493415056,58.64079054049324,8729.02672797719,0.002944274343007305,-41.59139851165797,179.3097761919425
70.50830512999448,18.001295845341215,58.639686080772144,8619.42924526265,0.003585692586580256,-40.035371123222184,179.31105287150783
71.00830492999444,18.001321715712713,58.63855678967195,8510.57346225992,0.003945935681163831,-38.323409199441485,179.3124141325307
71.50830472999439,18.001348218839066,58.63739747841553,8403.44585050892,0.004144437242360294,-36.48526097801119,179.3138410347775
72.00830452999435,18.001375427122756,58.636204721979624,8298.874055367967,0.004265361828846284,-34.54945760856979,179.31532628453337
72.5083043299943,18.00140337941706,58.63497651863196,8197.555913822633,0.004364823133795559,-32.54409258600857,179.31686953001898
73.00830412999426,18.00143208704962,58.633712043717054,8100.078526080081,0.004477755754768949,-30.49437846432498,179.31847404649037
73.50830392999421,18.00146153812971,58.63241147444363,8006.931196664608,0.004625066714234138,-28.426137829605473,179.32014391091909
74.00830372999417,18.001487055257787,58.631074803290105,7918.696136454955,18.738152395600324,-23.02858857444989,180.45688502608988
74.50830352999412,18.001451408790818,58.62969614665408,7838.300603092495,38.9945830078024,-19.339672747752296,183.73968426700128
75.00830332999408,18.00128120860791,58.62828660977432,7765.809766447896,53.146128166733874,-17.363421135850214,187.82936486619755
75.50830312999403,18.00096518900262,58.62686302261997,7698.305934250233,63.67785879707096,-18.70273731287931,188.25347751405656
76.00830292999399,18.000543484964172,58.6254358402546,7632.470338011468,70.51953482867295,-18.847872553870708,190.65415896489947
76.50830272999394,18.00001853663539,58.62401037325545,7567.245673545519,74.90022991579181,-19.025057089805447,193.1771166207154
77.0083025299939,17.999386237577426,58.62259113839848,7502.114025722069,77.68182546655264,-19.264453420228918,195.64672065895468
77.50830232999385,17.998644066094688,58.62118205728185,7436.736528079436,79.42741723659837,-19.53129816938595,198.0796791744293
78.00830212999381,17.997790880240487,58.6197865993198,7370.890970585731,80.50532044244044,-19.80475821349935,200.4972331621101
78.50830192999376,17.996826368662045,58.61840793151606,7304.436522488451,81.15593114393337,-20.07431365101632,202.91281903974
79.00830172999372,17.99575073916054,58.61704902962229,7237.28813689051,81.53535938908892,-20.33498743410757,205.33453575883934
79.50830152999367,17.994564565236246,58.615712753083656,7169.398396315804,81.74431066515274,-20.58467739931316,207.76736939358892
80.00830132999363,17.99326871480615,58.61440189348337,7100.7449922922615,81.84725739330655,-20.822730470108933,210.21448670067423
80.50830112999358,17.99186432014094,58.613119204676465,7031.322245165652,81.88513205399464,-21.04918200227707,212.6779572667454
81.00830092999354,17.99035276830176,58.611867420460214,6961.135430593926,81.88368752408496,-21.264355931360384,215.1591641431917
81.5083007299935,17.988735701614182,58.6106492637731,6890.197019118584,81.85896756601568,-21.46866228403148,217.6590456732658
82.00830052999345,17.98701502284387,58.609467450108724,6818.524203041652,81.82086008818428,-21.662501841777853,220.1782436354672
82.5083003299934,17.985192902320744,58.60832468694426,6746.137280924276,81.77538686525551,-21.8462275894446,222.71719736367217
83.00830012999336,17.983271785575152,58.60722367038713,6673.058608451307,81.72616663744307,-22.02013492436992,225.2762053001234
83.50829992999331,17.981254400727416,58.60616707984423,6599.311920311362,81.6753416373079,-22.184465284995092,227.85546606730952
84.00829972999327,17.979143765222087,58.60515757125247,6524.921893112987,81.6241586611799,-22.33941505040118,230.45510621232697
84.50829952999322,17.976943191677456,58.60419776923114,6449.913863659037,81.57332963454705,-22.48514559600114,233.07519907226214
85.00829932999318,17.974656292711032,58.60329025840067,6374.313646401939,81.52325270448031,-22.62179260579799,235.71577764321142
85.50829912999313,17.97228698464395,58.60243757403511,6298.147413566619,81.4741459745289,-22.74947391764019,238.37684337598319
86.00829892999309,17.969839490006432,58.60164219216874,6221.441614531097,81.42612710906003,-22.868295768966917,241.05837220380684
86.50829872999304,17.96731833877293,58.60090651924537,6144.222919289241,81.379259797391,-22.978357580053835,243.7603186952998
87.008298529993,17.964728278605715,58.600233076110506,6066.523611918113,79.55762374224209,-22.940612717734396,246.82069696110105
87.50829832999295,17.96204202314711,58.59965790001134,5990.580610837609,52.87790555851357,-19.641656233658253,255.9825493763558
88.00829812999291,17.95922422459391,58.59920926448574,5923.075767836818,35.10796686786687,-15.093867771586842,260.1712822275338
88.50829792999286,17.956298799671224,58.598859652510804,5868.306420210233,23.197460604506794,-9.759777639862984,262.6259963673479
89.00829772999282,17.953303372282747,58.59857023729672,5829.92781570772,-16.76035174552437,-2.9893957149161743,261.5912962187544
89.50829752999277,17.950286558213637,58.598272854004954,5806.973122037316,-5.171421054030928,2.134780265803218,259.9914400366077
90.00829732999273,17.947279105874358,58.59796751722139,5800.087074722448,-4.244029792641322,7.157525063641628,259.0903139189055
90.50829712999268,17.944310689498806,58.59765656682414,5809.330998653636,-3.821628550732434,12.32114724332259,258.445539645093
91.00829692999264,17.941408051298286,58.597343263090735,5834.043174316201,-3.5095912033166066,17.433937222770908,257.941693626332
91.5082967299926,17.938595035221944,58.59703097102078,5873.365151215652,-3.2773323493108593,22.453217955257205,257.52067260812555
92.00829652999255,17.935891633405156,58.59672288294946,5926.234473225198,-3.1084497062077143,26.38420059865912,257.210484800464
92.5082963299925,17.933289438876773,58.596420034054454,5989.367874835995,-3.258578158031861,26.23862230720799,257.1742781772257
93.00829612999246,17.930747036188468,58.59612041427715,6057.308334228489,-3.4558184100798472,25.345134223464395,257.1921776440509
93.50829592999241,17.928231268069233,58.59582212734034,6126.358957619942,-3.6821917300111577,24.07728629216347,257.24162628262263
94.00829572999237,17.92572207024612,58.59552417994982,6194.167712456149,-3.924892468399332,22.64216733519616,257.30906511078075
94.50829552999232,17.92320951251511,58.595226309349385,6259.288409274253,-4.178663484173207,21.135613477336488,257.3879716918553
95.00829532999228,17.920688749638543,58.59492851557116,6320.924718703929,-4.44034616073599,19.61806549966921,257.47343194742984
95.50829512999223,17.918157752959903,58.59463090528621,6378.6811089945495,-4.704440215049538,18.129153330510054,257.56129981551686
96.00829492999219,17.915616101059353,58.59433361792272,6432.409715706844,-4.970886055139209,16.694198004547236,257.64837208012125
96.50829472999214,17.913064234582034,58.59403678127399,6482.118284347093,-5.2349446583554835,15.328922017578712,257.7319579227716
97.0082945299921,17.91050299744312,58.59374048722679,6527.911962578327,-5.496636054914599,14.042433523874362,257.8100864363434
97.50829432999205,17.907933369462313,58.59344478154869,6569.956149750155,-5.756044264215882,12.839263422414707,257.8812925939922
98.00829412999201,17.905356317028254,58.59314966160709,6608.4520940267,-6.010186340108125,11.720736540481637,257.94442721511166
98.50829392999196,17.902772711919326,58.59285507882244,6643.620134914488,-6.258362555739078,10.685938516111841,257.99873295800455
99.00829372999192,17.900183295545283,58.59256094383282,6675.688484031067,-6.498733365568929,9.731461730697395,258.0438301619736
99.50829352999187,17.89758865818439,58.59226713293698,6704.884766012416,-6.730081964125293,8.853508882759511,258.07960615205883
100.00829332999183,17.894989250728603,58.59197349526063,6731.431233428479,-6.950941254207643,8.05023602067613,258.10563188606153
100.50829312999178,17.892385411496132,58.591679858808405,6755.542696624277,-7.159046777004146,7.316953176602103,258.12189426448265
101.00829292999174,17.88977737864761,58.591386036709764,6777.423653042114,-7.35712570091684,6.648802067939316,258.1286308747434
101.5082927299917,17.8871653057373,58.59109183257096,6797.2666438671295,-7.548208231464025,6.040900847621592,258.1261884941552
102.00829252999165,17.884549278789486,58.59079704482681,6815.251565885702,-7.732924976127519,5.488474140405725,258.1149504799955
102.5082923299916,17.88192933505215,58.59050147077746,6831.545493245289,-7.909880045072431,4.986950734801187,258.09531091063684
103.00829212999156,17.879305501154768,58.59020491260967,6846.30267506994,-8.07723469849457,4.532035750785715,258.0676735784426
103.50829192999151,17.876677814763077,58.589907181371046,6859.664765877513,-8.235144427166194,4.119679778430866,258.0324835663633
104.00829172999147,17.87404631657566,58.58960809731469,6871.76127920841,-8.38535503863544,3.7455083005534906,257.99040576139237
104.50829152999142,17.871411042327086,58.589307490356546,6882.709956910596,-8.529813702274277,3.4065142265888007,257.94192015598253
105.00829132999138,17.868772022447168,58.589005199129176,6892.618175730694,-8.668564061227771,3.0996556638793034,257.8874095838397
105.50829112999133,17.866129282642696,58.588701070546406,6901.583924219978,-8.801784995314963,2.821965522778387,257.8272830826915
106.00829092999129,17.86348284102312,58.58839495942327,6909.696445081383,-8.93024029825357,2.570738827868201,257.76193477969645
106.50829072999124,17.860832711340237,58.58808672854023,6917.036888694066,-9.054634255079756,2.343497055480034,257.69173599964944
107.0082905299912,17.858178904865238,58.58777624831458,6923.679068157936,-9.17538489829121,2.1385992716183115,257.61693429935
107.50829032999115,17.85552142595189,58.587463394871065,6929.69077946198,-9.292981188229652,1.9537521067856434,257.53788844023615
108.00829012999111,17.852860278705773,58.587148051556575,6935.133541623223,-9.40809851072705,1.7866035249061634,257.4549793370734
108.50828992999107,17.850195472314873,58.586830109756725,6940.062687775138,-9.520840392031188,1.635428635720648,257.368485685939
109.00828972999102,17.84752702751816,58.58650946904407,6944.528032455227,-9.631494915036843,1.498691850453329,257.2786615770181
109.50828952999098,17.844854976318427,58.586186036482275,6948.574445792127,-9.741245898379571,1.3749551791089243,257.1857521455072
110.00828932999093,17.84217935541042,58.58585972514598,6952.2423314992375,-9.850884415935985,1.2629517965722288,257.08996486593617
110.50828912999089,17.839500543112187,58.585530395766845,6955.622031507227,-9.892318458693474,1.1697855186675878,256.997985032234
111.00828892999084,17.836819413746614,58.58519767128585,6958.836025223494,-14.898495191624045,1.0941862232223543,256.90290812944187
111.5082887299908,17.83413504081007,58.584860876492606,6961.58819502596,-18.661932294702293,0.9882581377035174,256.749260621685
112.00828852999075,17.831449118085523,58.584518429156795,6964.063500572161,-22.92134177077871,0.9170292645619545,256.6095089260481
112.5082883299907,17.828761874238058,58.58416935737863,6966.1495991145375,-25.919842445377565,0.848406065385627,256.42973792878195
113.00828812999066,17.826073457057852,58.5838129718678,6967.801621395359,-28.02206835095612,0.7868905866992357,256.20533186679
113.50828792999062,17.823384038024724,58.583448684183395,6969.027219733009,-29.470197350416075,0.7350987165428655,255.93795796041027
114.00828772999057,17.820693852272413,58.58307595270144,6969.866316979069,-30.431658567082405,0.6932984195126395,255.6331029239644
114.50828752999053,17.818003255506177,58.58269430261149,6970.373604069883,-31.02446021549281,0.661433980029889,255.29733020575972
115.00828732999048,17.81531265811011,58.58230332020521,6970.611156867573,-31.336424548404544,0.6391671423041021,254.93748285153484
115.50828712999044,17.812622022862904,58.58190291534711,6970.579752181327,-26.49831429286137,0.6612822952039495,254.66901084595722
116.00828692999039,17.80992535161311,58.581496827481125,6969.683144568229,-13.129043965707286,0.5826947361698754,254.4436667577595
116.50828672999035,17.80722191502626,58.58108708495457,6968.4531976781045,-9.517607046934664,0.5635110281792935,254.09777883997202
117.0082865299903,17.80451866092934,58.580672819145896,6968.354411417074,-12.734997599295744,0.6463357666831431,253.88507941666649
117.50828632999026,17.80181519909382,58.5802530972621,6968.815688523317,-18.740007530093965,0.6721153296046927,253.6636322130532
118.00828612999021,17.799113052298516,58.57982628581114,6969.691098279691,-22.887045832016003,0.6830399578387265,253.45813955710932
118.50828592999017,17.79641221237345,58.57939158801056,6970.662020590443,-25.77759150452221,0.6719133554445922,253.231019824674
119.00828572999012,17.793712643712347,58.57894860208073,6971.545811938003,-27.79237030211969,0.6508029274425229,252.976882535199
119.50828552999008,17.79101439889885,58.578497048485346,6972.251355063165,-29.181869908051596,0.6271431515793937,252.69452020533708
120.00828532999003,17.788317639078528,58.57803666929029,6972.747038364396,-30.115508834168555,0.6053285703294008,252.38572281651204
120.50828512998999,17.785622612692073,58.577567207978305,6973.037932325033,-30.71265050566601,0.587670577461389,252.05406893464644
121.00828492998994,17.782929620848154,58.577088420386346,6973.149642342997,-31.059060792391097,0.5750919951835548,251.70395388587934
121.5082847299899,17.780238493155167,58.57660034546452,6973.052589213368,-26.036015734212523,0.6063123584399386,251.45949247561035
122.00828452998985,17.777543336260752,58.576106404948646,6972.234608376879,-18.891980879302427,0.5542513972508307,251.16626263767375
122.5082843299898,17.774844758588426,58.57560697289464,6971.182097735641,-13.440503107195823,0.54957021041447,250.9138438918847
123.00828412998976,17.772143203549696,58.57510294827124,6970.271039767975,-15.11248580691438,0.548452787478505,250.57025460618317
123.50828392998972,17.769444594212565,58.57459256782063,6970.362615820036,-20.38610594922824,0.6183075333518562,250.3435888279486
124.00828372998967,17.766749491851154,58.57407447716626,6970.974458156821,-24.067609152516173,0.6415023855095292,250.11187479284226
124.50828352998963,17.764057797387288,58.57354814924107,6971.761947929987,-26.677926937070715,0.6394011529201358,249.8655618426132
125.00828332998958,17.761369407904912,58.57301334080945,6972.525184502855,-28.554893801665884,0.6250190664735202,249.59846983779633
125.50828312998954,17.7586843366856,58.57246986715836,6973.159144239619,-29.915058964498325,0.6063186711599613,249.30813080671635
126.00828292998949,17.756002725907454,58.57191752942085,6973.619417723438,-30.899854783895748,0.5880167425614512,248.99482685368835
126.50828272998945,17.753324818180047,58.57135610696763,6973.898710435671,-31.605001251486474,0.5726633950858546,248.6605889616328
127.0082825299894,17.750650924055343,58.57078537013313,6974.011529666681,-32.10110738936628,0.5614390938944896,248.3083270073005
127.50828232998936,17.747981390632358,58.570205098116055,6973.983749953348,-32.4382933022084,0.5546108958338357,247.9413216104755
128.0082821299893,17.74531657446148,58.56961509511057,6973.84560792549,-32.65330605736704,0.5518962345515495,247.5628160761183
128.50828192998927,17.742656820198633,58.56901520166974,6973.62711501546,-32.778513046792156,0.5526835054038448,247.1757754376064
129.00828172998922,17.740002451234723,58.56840529765109,6973.355766331414,-32.83513106998957,0.55626528143177,246.78280475278225
129.50828152998918,17.737353764708306,58.56778530214472,6973.055439292628,-32.83806245311698,0.5619106272621928,246.3860926712739
130.00828132998913,17.734711027573823,58.567155172305235,6972.745921593672,-32.792048707510716,0.5689247596093306,245.98750338555573
130.5082811299891,17.732074474133988,58.56651490150644,6972.443031095124,-32.702751572409305,0.5766981464780425,245.58854549536048
131.00828092998904,17.72944430767612,58.565864514958584,6972.159090398294,-32.58420440868906,0.584737945302815,245.1903761887713
131.508280729989,17.726820704693385,58.56520406373517,6971.903391071302,-32.43429198097709,0.592636095227234,244.79404905417573
132.00828052998895,17.724203798639092,58.56453362884298,6971.681008117784,-32.24966371476964,0.5999745019061845,244.40046101177776
132.5082803299889,17.721593632454233,58.56385333381929,6971.486686548722,-30.900702801528528,0.632322962028017,244.05329177510998
133.00828012998886,17.718987311808345,58.563164644091366,6971.082061775726,-24.177699029689975,0.6407383540006315,243.78311379299163
133.50827992998882,17.716379036617802,58.56247030353649,6970.100956580213,-12.56378336329594,0.5548181932567896,243.48384998183172
134.00827972998877,17.71377002841255,58.5617710715011,6969.255252768615,-13.846322497447785,0.5881218810981274,243.19030009355356
134.50827952998873,17.71116366684975,58.56106672735792,6969.115817148069,-16.596914279958703,0.6552342910922038,242.9713303455072
135.00827932998868,17.708561388187842,58.560356740042145,6969.592134650535,-19.693375457846127,0.66490364277335,242.7092924507607
135.50827912998864,17.705965331810358,58.559640023917765,6970.602705339476,-23.49939723559954,0.6784034614213558,242.49540724291
136.0082789299886,17.703375473236523,58.55891604041291,6971.781663128302,-26.124855395711613,0.665393204033195,242.27295741686183
136.50827872998855,17.700791731056647,58.55818460103628,6972.910127670372,-27.939348247172717,0.6395871323912229,242.033519701968
137.0082785299885,17.698214153952925,58.55744560712928,6973.874943553117,-29.184704816839616,0.6107018735667035,241.7728416830272
137.50827832998846,17.695642862876007,58.55669891875864,6974.633693025917,-30.023266620925135,0.5835663299108161,241.49077255686987
138.0082781299884,17.693078040257532,58.55594435963786,6975.185323415244,-30.5644043196239,0.5605899449717727,241.18934576416387
138.50827792998837,17.690519834453525,58.55518176410158,6975.541846339166,-29.678994798434974,0.5693772822546471,240.91883630691228
139.00827772998832,17.68796532376757,58.55441218238065,6975.485033058939,-23.0608281712581,0.5581934823303477,240.7040815024891
139.50827752998828,17.68540962734961,58.55363759042932,6974.795829363853,-15.86483233136093,0.5098002623280329,240.45199938450347
140.00827732998823,17.682852592377138,58.552858752559594,6973.9013810598135,-12.346436358598307,0.472066050123234,240.14311865930873
140.5082771299882,17.68029754213062,58.55207583971149,6973.5611503872515,-12.381768714784199,0.5165807775790175,239.94602937480627
141.00827692998814,17.67774522647644,58.55128878382786,6973.736806756363,-15.43620962007705,0.5632200882900968,239.76851065907871
141.5082767299881,17.67519710823296,58.550496987572416,6974.367319161987,-18.785298623612658,0.5589293830522772,239.5364054961946
142.00827652998805,17.672655590131747,58.54969929767118,6975.419750927907,-22.83289464750484,0.5638542059978777,239.35286295515388
142.508276329988,17.670120947619765,58.5488950807913,6976.556931631494,-25.63544104582945,0.5457957792236962,239.15642254535027
143.00827612998796,17.66759331438752,58.54808409508948,6977.579385811106,-27.57991198200329,0.5194372595871246,238.93809797792161
143.50827592998792,17.665072796734094,58.54726615630709,6978.393580412043,-28.920334866676317,0.49222247040393785,238.69475235261177
144.00827572998787,17.66255955820114,58.54644105672446,6978.972495047352,-29.83448196840727,0.4682981219067159,238.42673766600797
144.50827552998783,17.660053825102153,58.5456085654399,6979.3272945310955,-30.44548921959022,0.4495818042521566,238.13661038946353
145.00827532998778,17.65755585125885,58.54476845213429,6979.487693639723,-30.834236739648038,0.43652100684223144,237.82803959798613
145.50827512998774,17.655065819692215,58.54392052672788,6979.481700838048,-29.825682218859566,0.45686157358620477,237.55413815194234
146.0082749299877,17.652581137298746,58.54306560085996,6979.155643663315,-27.657810239736246,0.43954977412467783,237.24148374763024
146.50827472998765,17.65010171448727,58.54220378628998,6978.65852217089,-21.407386873514824,0.45419840352495255,237.03144876225727
147.0082745299876,17.647622118359383,58.5413370533652,6977.693619998217,-17.329206155974315,0.38583323420718646,236.66577638233466
147.50827432998756,17.645148176382857,58.540464477087795,6977.263886565239,-20.541891031234503,0.4587356291081887,236.42794449192363
148.0082741299875,17.64268027545612,58.53958590239002,6977.209371200708,-22.391505129468637,0.45953062476864986,236.12927987528406
148.50827392998747,17.640220878300692,58.53870055840324,6977.598348540134,-25.31377224100879,0.48143841299715145,235.88109271701603
149.00827372998742,17.637769986792375,58.537808152918,6978.14534186807,-27.347721630042575,0.48126418340113464,235.6295289639883
149.50827352998738,17.63532760379019,58.5369086069183,6978.675429915432,-28.773644062214238,0.4710004144938814,235.36617375146102
150.00827332998733,17.632893813078095,58.536001850881895,6979.100435053262,-29.773093119232307,0.45788564735513126,235.08735496270515
150.5082731299873,17.630468761929645,58.535087772199226,6979.387157843176,-30.467533645077157,0.4456440325656861,234.79261028271048
151.00827292998724,17.62805264866523,58.53416623136436,6979.534084470642,-30.938889050236522,0.4361131590560272,234.48323857091108
151.5082727299872,17.62564570275881,58.533237082590375,6979.556990763465,-31.244959603936287,0.42997176754422367,234.16140838130195
152.00827252998715,17.623239525349966,58.532307153581336,6977.870258767846,-22.286654035021623,-4.29119321520799,236.28278512843264
152.5082723299871,17.620817247187734,58.53139534187504,6969.438471519059,-16.098561159433192,-7.717040850180507,237.08729004845495
153.00827212998706,17.61838485782572,58.53050445493384,6952.623261713345,-12.016032709939578,-10.826225689565003,237.4632786918063
153.50827192998702,17.615952136404378,58.52963312708107,6927.19696556604,-9.183657722227716,-13.879071551175636,237.66984658386025
154.00827172998697,17.613528094411134,58.52878028126557,6893.157828405905,-7.1318583238770765,-16.892208169103434,237.78984997805264
154.50827152998693,17.61112083340182,58.52794534768862,6850.569376264313,-5.595176244492353,-19.869750471935212,237.86336077017236
155.00827132998688,17.60873769525659,58.52712817388851,6799.524836466533,-4.416483229140088,-22.817583067881664,237.91124166910882
155.50827112998684,17.60638542702297,58.52632893898354,6740.132977808351,-3.4976781583118157,-25.741885095428696,237.9445354132648
156.0082709299868,17.60404968709079,58.52553916774061,6676.020911836884,-2.5720456718650437,-14.860212146525612,237.18258583732944
156.50827072998675,17.60167875181012,58.524734852655165,6618.045485941342,-1.9184989767770757,-22.00858481025717,237.36746141444388
157.0082705299867,17.599319272758255,58.52393560559144,6556.392405371931,-1.4719315708185554,-26.127940533463065,237.43640280870653
157.50827032998666,17.596999084699146,58.52315176165698,6486.961735979525,-2.9025506871098745,-29.145691934497705,237.3766986093581
158.0082701299866,17.594718807781877,58.52238676330569,6410.898055627022,-21.3983911570928,-31.56087849518012,238.73005322900218
158.50826992998657,17.592472324351082,58.52165285845122,6327.448863082829,-14.154542433718186,-33.2396015360848,239.5190374112706
159.00826972998652,17.590252353868227,58.520939620439854,6238.043062663928,-9.64803883341496,-32.14804633362331,239.1604379214041
159.50826952998648,17.58802924398456,58.520226380004644,6146.627774953437,-6.669054285786428,-30.608463047367138,238.78984757422302
160.00826932998643,17.585780537956623,58.51950180899036,6056.108431758347,-4.618589720554557,-28.86229009005364,238.49871733614168
160.5082691299864,17.583495064610563,58.518761718867424,5968.344042533308,3.419608811831281,-25.322075317153583,238.4671129924066
161.00826892998634,17.581132630318052,58.51801174434035,5887.769163626031,28.28055277316342,-18.563268156492082,240.76778236635016
161.5082687299863,17.578636727522525,58.51729468967702,5818.7948171092,45.538094228615144,-14.731170762692113,245.10772884889843
162.00826852998625,17.5760084916165,58.516651863250274,5759.527942519078,57.948490494339815,-14.321011723507228,247.34083043260424
162.5082683299862,17.57329754773863,58.51607435377784,5704.896413308427,66.57905521177865,-14.346879613494421,249.4952718383554
163.00826812998616,17.570530401339155,58.515553679163865,5652.223058115221,72.18912122561147,-14.219119626893425,252.24794390750182
163.50826792998612,17.56771486505237,58.51509424905124,5600.620397281417,75.81744613719292,-14.208844451788398,255.00399221672114
164.00826772998607,17.56485775366377,58.51470009745308,5549.548386836877,78.15430337274688,-14.27760573702797,257.7331525897071
164.50826752998603,17.56196597919199,58.51437400309657,5498.645864381147,79.65097852136601,-14.391051883133805,260.44828197877484
165.00826732998598,17.55904645004885,58.51411790141293,5447.674297622815,80.60264592910977,-14.5285872470814,263.15943149985185
165.50826712998594,17.55610602841745,58.51393318899834,5396.4793745976,81.20212390204854,-14.678160707274577,265.8727265516735
166.0082669299859,17.553151541421606,58.51382089324021,5344.9636569534305,81.5750090377336,-14.83272811461281,268.5919121353201
166.50826672998585,17.550189806227067,58.51378176377046,5293.067656482509,81.80280470605281,-14.9881912620039,271.3193570869568
167.0082665299858,17.547227652566242,58.51381632151044,5240.757001771519,81.93817471170009,-15.142188234731183,274.05661154535926
167.50826632998576,17.54427193791849,58.513924884537786,5188.013845295209,82.01499145450951,-15.293376247292898,276.8047189586862
168.0082661299857,17.54132955502197,58.51410758107558,5134.831160536159,82.05493610461708,-15.441005607953379,279.56439745274497
168.50826592998567,17.538407432795676,58.51436435524658,5081.208982941422,82.07181747514257,-15.584667628666438,282.3361499598899
169.00826572998562,17.535512532001334,58.51469496877016,5027.151946254552,82.07438582480295,-15.72414666988407,285.12033383793425
169.50826552998558,17.53265183683409,58.515099000436734,4972.667675737989,82.06815751197703,-15.859334316801394,287.91720630940813
170.00826532998553,17.529832343394325,58.51557584444464,4917.765744700241,82.05659242202401,-15.990180368443587,290.72695478127974
170.5082651299855,17.52706104576461,58.51612470825293,4862.456999148748,82.04184989068168,-16.116665421918206,293.5497173444902
171.00826492998544,17.52434492022809,58.51674461035214,4806.753121734783,82.02527147221458,-16.238785959586494,296.3855967233542
171.5082647299854,17.521690908022038,58.517434378205344,4750.666350355983,82.00768758436156,-16.35654655260068,299.23466978637794
172.00826452998535,17.519105896915644,58.51819264652214,4694.209296247476,81.98961118274431,-16.469956024694795,302.096994027167
172.5082643299853,17.516618186316073,58.51903385419749,4638.295365459895,61.30950809054951,-14.32521540348427,310.5542425852464
173.00826412998526,17.51429211058441,58.5200055400511,4589.467532423946,40.9688188146149,-9.934131130131151,315.9341957516757
173.50826392998522,17.512098710426212,58.52107934350325,4555.3618674614045,-15.359703743468064,-2.6064148973389862,316.6529838906392
174.00826372998517,17.509907510578685,58.52216841362196,4537.738783552632,-3.8354927408581654,3.5104048618087473,314.65104436724744
174.50826352998513,17.507723103719556,58.52325095750116,4537.138938062605,-1.823787913655287,9.01122433308575,314.0208918765908
175.00826332998508,17.505567679249754,58.52431631324507,4553.047848769426,-1.4341677170897151,11.293943737138305,313.7083851424262
175.50826312998504,17.50344067551854,58.52536600282462,4579.3359103773955,-1.3191223005203263,11.447666458696725,313.5745250982165
176.008262929985,17.50133138476383,58.52640636438041,4610.340355602854,-1.2735161074223342,11.037040288737414,313.5071876020317
176.50826272998495,17.49923045927835,58.5274424850392,4642.735338753033,-1.2665364877108702,10.360975982210633,313.472777406909
177.0082625299849,17.49713333487858,58.52847683311994,4674.584582808084,-1.2794144885143297,9.581231562746698,313.4555731733728
177.50826232998486,17.495038249446317,58.52951035629121,4704.861798818377,-1.304224725987111,8.77592492832465,313.4480597401433
178.00826212998481,17.49294444924632,58.53054343525683,4733.0920829839915,-1.3364884507315389,7.987410818931903,313.4458654205504
178.50826192998477,17.490851568081258,58.53157622688611,4759.106409038482,-1.3746745429572722,7.238272813209409,313.44634810531045
179.00826172998472,17.48875940429616,58.53260879088514,4782.903177274802,-1.415531827036727,6.539250886255227,313.44788042195876
179.50826152998468,17.486667812754167,58.533641151395464,4804.569559825963,-1.4560886747083925,5.894280369427494,313.44943087436377
180.00826132998463,17.484576653302724,58.53467332681037,4824.236589507365,-1.4950050831033024,5.30345724236144,313.4503625022583
180.5082611299846,17.48248577097641,58.53570534203598,4842.053631605762,-1.5308523846854638,4.764791718468364,313.4503002148227
181.00826092998454,17.480394992042584,58.536737231956884,4858.174007775245,-1.564200961732403,4.275217499298259,313.4490478605723
181.5082607299845,17.478304127957703,58.53776904011222,4872.747342448265,-1.596307617329564,3.8312084168899974,313.44653732224447
182.00826052998445,17.476212980336662,58.53880081675958,4885.915302804288,-1.6263947184748364,3.4291058086847417,313.4427644248662
182.5082603299844,17.47412134726925,58.539832616277565,4897.809736375523,-1.6540486153249827,3.0653088762709495,313.4377526841641
183.00826012998436,17.472029029071262,58.54086449421417,4908.552149513752,-1.682069963700358,2.736381504150325,313.43156105630095
183.50825992998432,17.46993584013179,58.54189650065381,4918.253533586446,-1.713625049133471,2.439138120211524,313.4242765610961
184.00825972998427,17.46784162872039,58.54292866998235,4927.014349132437,-1.748751914342263,2.170600400637266,313.4159776180666
184.50825952998423,17.46574626272109,58.54396102782938,4934.925748905677,-1.7867445097808643,1.9280409884926717,313.4067120020192
185.00825932998418,17.463649620578494,58.5449935956936,4942.070278435448,-1.8269103655508592,1.708979648118444,313.39651067941384
185.50825912998414,17.461551587689296,58.546026392669866,4948.522989467892,-1.868592977635806,1.512150625865747,313.38536511283894
186.0082589299841,17.45945204631179,58.54705944028572,4954.352735046164,-1.9111217453783453,1.3345195563419485,313.3733277605911
186.50825872998405,17.45735088617461,58.54809275795236,4959.621234420339,-1.9538868991064897,1.1740906783421245,313.3604245640534
187.008258529984,17.45524800903075,58.54912636084388,4964.383672276149,-1.9961948475207743,1.0291600000629462,313.34667977065055
187.50825832998396,17.453143328828194,58.550160259698195,4968.689514783687,-2.0383881350680064,0.8981868898906161,313.33211911082583
188.00825812998391,17.451036767780636,58.55119446244126,4972.58321327675,-2.080601628645251,0.7798041391039408,313.3167727916758
188.50825792998387,17.448932794499598,58.55222570537045,4979.483448606411,-1.3565141503502323,10.248405719854249,313.0284407531922
189.00825772998382,17.446844008279225,58.553246002855055,4995.674022720149,-2.071440781327374,2.9913115299066204,313.2573820713824
189.50825752998378,17.44475773344437,58.55426605010807,5008.114382781959,-2.274228919130604,0.46334860349373247,313.3328500496598
190.00825732998373,17.442673643912926,58.555286756772624,5014.947754362694,-2.3266979013840836,-0.06259138646531873,313.3324419354645
190.5082571299837,17.440590269852066,58.556307822970034,5018.387877787793,-2.3767088223208,-0.35246500618464144,313.32202949485617
191.00825692998365,17.438505844443206,58.55732944008874,5019.845793122399,-2.4256017094272386,-0.5068699778532562,313.3054995556661
191.5082567299836,17.43641905926347,58.55835182694105,5020.170756356139,-2.4745966137300055,-0.5820288220741098,313.2850226226823
192.00825652998356,17.43432921083615,58.559375061659004,5019.870348398191,-2.529797882840111,-0.6110504206464822,313.26194159708507
192.5082563299835,17.432236022043906,58.5603991067468,5019.245366283864,-2.59601186091851,-0.6144072651358611,313.23710594753663
193.00825612998347,17.430139343879663,58.561423916487975,5018.4717116673055,-2.6733880653679734,-0.6039241181280497,313.21098827140406
193.50825592998342,17.428039102547796,58.56244944032605,5017.650454577306,-2.759257461907425,-0.5864701295122762,313.18383296460416
194.00825572998338,17.42593527007673,58.56347562435194,5016.838029559717,-2.852400868872938,-0.5660177826700717,313.1557483294513
194.50825552998333,17.423827844621293,58.564502412882035,5016.064449794376,-2.95194986387458,-0.5448179829728582,313.1267739403693
195.00825532998329,17.421716840034822,58.56552974975675,5015.344489401064,-3.0511904889646204,-0.5240816587761046,313.0969346317898
195.50825512998324,17.419602281488228,58.566557580420806,5014.684145814165,-3.1447019021667675,-0.5044576907672637,313.06623924948764
196.0082549299832,17.41748420146953,58.56758585323642,5014.084259719786,-3.2329508739386794,-0.4862762669612573,313.0346970641998
196.50825472998315,17.415362633448797,58.568614519040736,5013.542492845408,-3.3250978142805274,-0.46968512760971465,313.0023059795467
197.0082545299831,17.413237608410668,58.56964352910146,5013.055215880627,-3.4191564217810364,-0.4546295160699893,312.9691039958866
197.50825432998306,17.411109155520442,58.57067283544881,5012.618282347754,-3.5142219818836735,-0.4410406879261738,312.93508442756075
198.00825412998302,17.408977303183743,58.57170239119589,5012.227560659632,-3.6059513787089252,-0.42880497700863024,312.9002545245715
198.50825392998297,17.40684207994334,58.57273215141337,5011.878977449116,-3.6942283640407054,-0.4178332032250855,312.8646087398093
199.00825372998293,17.40470351205969,58.573762072900465,5011.56836711382,-3.7855162449636657,-0.408048281147843,312.82813471846134
199.50825352998288,17.40256162284501,58.574792112765344,5011.291988775614,-3.876280547008583,-0.3993005078911649,312.7908648373536
200.00825332998284,17.4004164348681,58.57582222912328,5011.046524712545,-3.964158141442416,-0.39149009762421516,312.75279806292355
200.5082531299828,17.39826796951109,58.57685238154241,5010.8288108065635,-4.05213128907469,-0.38454788993062466,312.7139232229728
201.00825292998275,17.3961162458812,58.57788253033954,5010.635926150158,-4.140834803815949,-0.37837964203107805,312.6742516211918
201.5082527299827,17.393961280488686,58.578912636315515,5010.465170906988,-4.231798344620483,-0.37290951534271377,312.6337777689322
202.00825252998266,17.391803087372733,58.579942660433126,5010.314153862181,-4.323910252418217,-0.36805259768823606,312.5925016890601
202.5082523299826,17.389641678452282,58.580972564029615,5010.180695483986,-4.417830141547574,-0.3637496603790793,312.55040524681647
203.00825212998257,17.387477064337084,58.582002308750546,5010.062949467719,-4.510412529254482,-0.35992432416346165,312.5074900014793
203.50825192998252,17.385309255981106,58.58303185724028,5009.9593490485495,-4.599270250528398,-0.35652630977442845,312.46375099113015
204.00825172998248,17.38313826513373,58.58406117364242,5009.86847292197,-4.684257952928178,-0.353520246361581,312.41919091833626
204.50825152998243,17.380964104199805,58.58509022355785,5009.789032765004,-4.765227490640034,-0.3508668758865412,312.3738304803154
205.0082513299824,17.378786786263326,58.58611897396968,5009.719877974508,-4.842024771284067,-0.3485303941609933,312.32769739821623
205.50825112998234,17.37660632511109,58.587147393197775,5009.65998461566,-4.914609148854744,-0.3464791109574225,312.2808238121007
206.0082509299823,17.374422734843805,58.58817545082665,5009.608388386176,-4.984298874522029,-0.3446903389476606,312.23323922720306
206.50825072998225,17.37223602883693,58.589203117336815,5009.564130354533,-5.053518681047685,-0.34314306870769035,312.18496999043424
207.0082505299822,17.37004621940267,58.59023036355679,5009.526377709103,-5.121824235200264,-0.341800030198602,312.1360488040179
207.50825032998216,17.367853317911614,58.59125716073505,5009.494364186928,-5.190132560436717,-0.340643527819143,312.08648635340245
208.00825012998212,17.365657334510924,58.5922834803878,5009.46738352207,-5.258870879692867,-0.3396508424408682,312.0362939031845
208.50824992998207,17.36345827864675,58.593309294247895,5009.444869943512,-5.326410403429573,-0.33879393551026504,311.98548460903925
209.00824972998203,17.361256159985114,58.594334574659435,5009.42637500706,-5.391394896852037,-0.338057085300051,311.9340651471282
209.50824952998198,17.359050988341377,58.59535929488093,5009.411441066685,-5.454957905969769,-0.3374376522515843,311.88203815090947
210.00824932998194,17.35684277205972,58.59638342875648,5009.399469891733,-5.521267891143766,-0.33693711672082133,311.82940133425024
210.5082491299819,17.354631517690663,58.597406949790766,5009.390009771267,-5.588105755429259,-0.33651478818613,311.77617845255855
211.00824892998185,17.3524172302644,58.59842983155147,5009.382586253188,-5.657822316003198,-0.33617595480088164,311.7223462033102
211.5082487299818,17.350199913231585,58.59945204728713,5009.376842313275,-5.7284043244634795,-0.3358904347532053,311.6679096871036
212.00824852998176,17.34797956667457,58.60047357022456,5009.372100232405,-5.808648165627358,-0.33569326229333885,311.6128076748382
212.5082483299817,17.345756182583987,58.60149437218858,5009.367241819382,-5.904779800864462,-0.33556811965969763,311.55700191345835
213.00824812998167,17.343529743701048,58.6025144228037,5009.360983390752,-6.014780934768028,-0.33546552757903564,311.5004402494772
213.50824792998162,17.341300228408755,58.60353368812746,5009.352924622339,-6.132962459387588,-0.3353167597705172,311.44303273390904
214.00824772998158,17.339067614727398,58.604552132190065,5009.343287246159,-6.25298757413034,-0.335094011771949,311.3846887682472
214.50824752998153,17.336831882123402,58.60556971909969,5009.332374596939,-6.372101821174234,-0.3348140149497529,311.3253287290912
215.0082473299815,17.33459301146373,58.60658641393109,5009.320353336471,-6.489710812860098,-0.3344955835982102,311.26490532812977
215.50824712998144,17.332350984360854,58.60760218279641,5009.307236890537,-6.606256888993378,-0.3341505660283894,311.2033948059856
216.0082469299814,17.330105786214645,58.60861699149803,5009.293730562195,-6.71357694614681,-0.333732101355164,311.14082753389005
216.50824672998135,17.327857409415312,58.609630807774565,5009.280779494974,-6.806864154477541,-0.3332661750866197,311.0772245720637
217.0082465299813,17.325605852715217,58.610643603661956,5009.268869524044,-6.885431317361662,-0.33280485513884894,311.0126437643194
217.50824632998126,17.323351119263897,58.611655355861295,5009.257955329451,-6.951142865431981,-0.33238391594183475,310.94717353296534
218.00824612998122,17.321093215835127,58.61266604385682,5009.248059707997,-7.00658170731731,-0.3320007923481581,310.88091640559674
218.50824592998117,17.318832150260217,58.61367564907936,5009.239025874192,-7.059099348766658,-0.3316742920657245,310.8139534971396
219.00824572998113,17.31656793236595,58.614684153285445,5009.231172928745,-7.09959399170312,-0.3313339532904049,310.7464345173301
219.50824552998108,17.314300576338766,58.61569154054112,5009.224825122848,-7.130484080231835,-0.3310284829742239,310.67840658527706
220.00824532998104,17.312030099537328,58.616697797018354,5009.220247879073,-7.151986549774701,-0.3307581885518633,310.6099725967851
220.508245129981,17.309756521380507,58.61770291078549,5009.217528971404,-7.168089561119077,-0.3305462506805633,310.54120741858503
221.00824492998095,17.307479861623264,58.61870687088473,5009.216632327142,-7.181320514416539,-0.3303915529714785,310.4721927004487
221.5082447299809,17.305200138776055,58.61970966667249,5009.217343258721,-7.196190629845535,-0.3303030198363534,310.40297602741884
222.00824452998086,17.30291736956164,58.620711286892146,5009.219495768595,-7.211795423148811,-0.33025552359888105,310.3336102909047
222.5082443299808,17.300631569919073,58.621711719950575,5009.222995752543,-7.227230487315676,-0.3302440439807211,310.26411285096776
223.00824412998077,17.298342754872255,58.62271095429953,5009.227669549746,-7.244221089651434,-0.33027644058189787,310.194482583308
223.50824392998072,17.296050939033574,58.623708978185796,5009.233464158803,-7.259521064542745,-0.3303293756697267,310.1247418521199
224.00824372998068,17.293756136760788,58.624705780344875,5009.240213892156,-7.276020793709393,-0.3304247519660333,310.0548699240839
224.50824352998063,17.291458360987765,58.62570134944362,5009.247687974918,-7.294586040333107,-0.33055212603819273,309.984872463162
225.0082433299806,17.289157624594317,58.62669567384733,5009.255887073609,-7.310296594172898,-0.3306825620048349,309.91476721804605
225.50824312998054,17.28685394177036,58.62768874275198,5009.264842336402,-7.323092786878168,-0.33083236193317284,309.84453997447775
226.0082429299805,17.284547327168273,58.62868054629605,5009.274478151313,-7.334768983470781,-0.33100994564334846,309.7741948424161
226.50824272998045,17.28223779564191,58.629671075069744,5009.284756781048,-7.344290669583134,-0.3312032726290902,309.7037551132088
227.0082425299804,17.279925363424425,58.630660320292144,5009.295790370152,-7.348722337772752,-0.33140273459324787,309.63324567018265
227.50824232998036,17.27761004744641,58.63164827443649,5009.307497178519,-7.352765190941112,-0.3316399164587028,309.56266036471766
228.00824212998032,17.275291863030642,58.63263493015646,5009.3196312682185,-7.3595831009919515,-0.3319096449316211,309.49202047063585
228.50824192998027,17.272970824422508,58.63362027945473,5009.332129770631,-7.365692750840818,-0.3321806066558978,309.42135582179617
229.00824172998023,17.27064694617831,58.634604314491675,5009.345006398809,-7.370455973463889,-0.3324596552645362,309.3506593904761
229.50824152998018,17.2683202428965,58.63558702789443,5009.358218302444,-7.374851206385012,-0.3327531048309938,309.27993071833964
230.00824132998014,17.265990728012877,58.63656841248556,5009.371574042684,-7.382040740281956,-0.33306950645038813,309.2091632487806
